{"type":"Topology","objects":{"nielsen-mkt-map":{"type":"GeometryCollection","geometries":[{"type":"Polygon","arcs":[[0,1,2,3,4,5,6,7,8,9,10]],"properties":{"dma_code":767,"dma_name":"Casper-Riverton, WY","latitude":43.4127655,"longitude":-107.4729745}},{"type":"Polygon","arcs":[[11,12,13,14,15,16,17,18,19,20]],"properties":{"dma_code":839,"dma_name":"Las Vegas, NV","latitude":37.082759,"longitude":-116.121035}},{"type":"MultiPolygon","arcs":[[[21,22]],[[23,24]],[[25,26]],[[27,28,29,30,31,32,33,34,35,36,37,38,39,40,41,42,43,44,45,46,47,48,49,50,51,52,53,54,55,56,57,58,59,60]],[[61,62]],[[63,64]],[[65,66,67,68,69,70,71,72,73,74,75,76,77,78,79,80,81,82,83,84,85,86,87,88,89,90,91,92,93,94,95,96,97,98,99,100,101,102,103,104,105,106,107,108,109,110,111,112,113,114,115,116,117,118,119,120,121,122,123,124,125,126,127,128,129,130,131,132]],[[133,134]],[[135,136]],[[137,138]],[[139,140]],[[141,142,143,144,145,146,147,148,149,150,151,152,153,154,155,156,157,158]],[[159,160,161,162,163,164,165,166,167,168]],[[169,170,171,172,173,174,175,176,177,178,179,180,181,182,183,184,185,186,187,188,189,190,191,192,193,194,195,196,197,198,199,200,201,202,203,204,205,206,207,208,209,210,211,212,213,214,215,216,217,218,219,220,221,222,223,224,225,226,227,228,229,230,231,232,233,234,235,236,237,238,239,240,241,242,243,244,245,246,247,248,249,250,251,252,253,254,255,256,257,258,259,260,261,262,263,264,265,266,267,268,269,270,271,272,273,274,275,276,277,278,279,280,281,282,283,284,285,286,287,288,289,290,291,292,293,294,295,296,297,298,299,300,301,302,303,304,305,306,307,308,309,310,311,312,313,314,315,316,317]],[[318,319,320,321,322,323,324,325,326,327,328,329,330,331,332,333,334,335,336,337,338,339,340,341,342,343,344,345,346,347,348,349,350,351,352,353,354,355,356,357,358,359,360,361,362,363,364,365]],[[366,367]],[[368]],[[369,370]],[[371,372,373,374,375,376,377,378,379,380,381,382,383,384]],[[385,386,387,388,389,390,391,392,393,394,395,396,397,398,399,400,401,402,403,404,405,406,407,408,409,410,411,412,413,414,415,416,417,418,419,420,421,422,423,424,425,426,427,428,429,430,431,432,433,434,435,436,437,438,439,440,441,442,443,444,445,446,447,448,449,450,451,452,453,454,455,456,457,458,459,460,461,462,463,464,465,466,467,468,469,470,471,472,473,474,475,476,477,478,479,480,481,482,483,484,485,486]],[[487,488,489,490,491,492,493,494,495,496,497,498,499,500,501,502,503,504,505,506,507,508,509,510,511,512,513,514,515,516,517,518,519,520,521,522,523,524,525,526]],[[527,528,529,530,531,532,533,534,535,536,537,538]],[[539,540,541,542,543,544,545,546,547,548,549,550,551,552,553,554,555,556,557,558,559,560,561,562,563,564,565,566,567,568,569,570,571,572,573,574,575,576,577,578,579,580,581,582,583,584,585,586,587,588,589,590,591,592,593,594,595,596,597,598,599,600,601,602,603,604,605,606,607,608,609,610,611,612,613,614,615,616,617,618]],[[619,620,621,622,623,624,625,626,627,628,629,630,631,632,633,634,635,636,637,638,639,640,641,642,643,644,645,646,647,648,649,650,651,652,653,654,655,656,657,658,659,660,661,662,663,664,665,666,667,668,669,670,671,672,673,674,675,676,677,678,679,680,681,682,683,684,685,686,687,688,689,690,691,692,693,694,695,696,697,698,699,700,701,702,703,704,705,706,707,708,709,710,711,712,713,714,715,716,717,718,719,720,721,722,723,724,725,726,727,728,729,730,731,732,733,734]],[[735,736,737,738,739,740,741,742,743,744,745,746,747,748,749,750,751,752,753,754,755,756,757,758,759,760,761,762,763,764,765,766,767,768,769,770,771,772,773,774,775,776,777,778,779,780,781,782,783,784,785,786,787,788,789,790,791,792,793,794,795,796,797,798,799,800,801,802,803,804,805,806,807,808,809,810,811,812,813,814,815,816,817,818,819,820,821,822,823,824,825,826,827,828,829,830,831,832,833,834,835,836,837,838,839,840,841,842,843,844,845,846,847,848,849,850,851,852,853,854,855,856,857,858,859,860,861,862,863,864,865,866,867,868,869,870,871,872,873,874,875,876,877,878,879,880,881,882,883,884,885,886,887,888,889,890,891,892,893,894,895,896,897,898,899,900,901,902,903,904,905,906,907,908,909,910,911,912,913,914,915,916,917,918,919,920,921,922,923,924,925,926,927,928,929,930,931,932,933,934,935,936,937,938,939,940,941,942,943,944,945,946,947,948,949,950,951,952,953,954,955,956,957,958,959,960,961,962,963,964,965,966,967,968,969,970]],[[971,972]],[[973,974,975,976,977,978,979,980,981,982,983,984,985,986,987,988,989]],[[990,991,992,993,994,995,996,997,998,999,1000,1001,1002,1003,1004,1005,1006,1007,1008,1009,1010,1011,1012,1013,1014,1015,1016,1017,1018,1019,1020,1021,1022,1023,1024,1025,1026,1027]],[[1028,1029,1030,1031]],[[1032,1033,1034,1035,1036,1037,1038,1039,1040,1041,1042,1043,1044,1045,1046,1047,1048,1049,1050,1051,1052,1053,1054,1055,1056,1057,1058,1059,1060,1061,1062,1063,1064,1065,1066,1067,1068,1069,1070,1071,1072,1073,1074,1075,1076,1077,1078,1079,1080,1081]],[[1082,1083,1084,1085,1086,1087,1088,1089,1090,1091,1092,1093,1094,1095]],[[1096,1097]],[[1098,1099]],[[1100]],[[1101,1102]],[[1103]],[[1104,1105,1106,1107,1108,1109,1110,1111,1112,1113,1114,1115,1116,1117,1118,1119,1120,1121,1122,1123,1124,1125,1126,1127,1128,1129,1130,1131,1132,1133,1134,1135,1136,1137,1138,1139,1140,1141,1142,1143,1144,1145,1146,1147,1148,1149,1150,1151,1152,1153,1154,1155,1156,1157,1158,1159,1160,1161,1162,1163,1164,1165,1166,1167,1168,1169,1170,1171,1172,1173,1174,1175,1176,1177,1178,1179,1180,1181,1182,1183,1184,1185,1186,1187,1188,1189,1190,1191,1192,1193,1194,1195,1196,1197,1198,1199,1200,1201,1202,1203,1204,1205,1206,1207,1208,1209,1210,1211,1212,1213,1214,1215,1216,1217,1218,1219,1220,1221,1222,1223,1224,1225,1226,1227,1228,1229,1230,1231,1232,1233,1234,1235,1236,1237,1238,1239,1240,1241,1242,1243,1244,1245,1246,1247,1248,1249,1250,1251,1252,1253,1254,1255,1256,1257,1258,1259,1260,1261,1262,1263,1264,1265,1266,1267,1268,1269]],[[1270,1271]]],"properties":{"dma_code":100,"dma_name":"Juneau, AK","latitude":null,"longitude":null}},{"type":"Polygon","arcs":[[1272,1273]],"properties":{"dma_code":65,"dma_name":"Fairbanks, AK","latitude":null,"longitude":null}},{"type":"MultiPolygon","arcs":[[[1274]],[[1275,1276,1277,1278]],[[1279]],[[1280,1281]],[[-1273,1282,1283,1284,1285,1286,1287,1288,1289,1290,1291,1292,1293,1294,1295,1296,1297,1298,1299,1300,1301,1302,1303,1304,1305,1306,1307,1308,1309,1310,1311,1312,1313,1314,1315,1316,1317,1318,1319,1320,1321,1322,1323,1324,1325,1326,1327,1328,1329,1330,1331,1332,1333,1334,1335,1336,1337,1338,1339,1340,1341,1342,1343,1344,1345,1346,1347,1348,1349,1350,1351,1352,1353,1354,1355,1356,1357,1358,1359,1360,1361,1362,1363,1364,1365,1366,1367,1368,1369,1370,1371,1372,1373,1374,1375,1376,1377,1378,1379,1380,1381,1382,1383,1384,1385,1386,1387,1388,1389,1390,1391,1392,1393,1394,1395,1396,1397,1398,1399,1400,1401,1402,1403,1404,1405,1406,1407,1408,1409,1410,1411,1412,1413,1414,1415,1416,1417,1418,1419,1420,1421,1422,1423,1424,1425,1426,1427,1428,1429,1430,1431,1432,1433,1434,1435,1436,1437,1438,1439,1440,1441,1442,1443,1444,1445,1446,1447,1448,1449,1450,1451,1452,1453,1454,1455,1456,1457,1458,1459,1460,1461,1462,1463,1464,1465,1466,1467,1468,1469,1470,1471,1472,1473,1474,1475,1476,1477,1478,1479,1480,1481,1482,1483,1484,1485,1486,1487,1488,1489,1490,1491,1492,1493,1494,1495,1496,1497,1498,1499,1500,1501,1502,1503,1504,1505,1506,1507,1508,1509,1510,1511,1512,1513,1514,1515,1516,1517,1518,1519,1520,1521,1522,1523,1524,1525,1526,1527,1528,1529,1530,1531,1532,1533,1534,1535,1536,1537,1538,1539,1540,1541,1542,1543,1544,1545,1546,1547,1548,1549,1550,1551,1552,1553,1554,1555,1556,1557,1558,1559,1560,1561,1562,1563,1564,1565,1566,1567,1568,1569,1570,1571,1572,1573,1574,1575,1576,1577,1578,1579,1580,1581,1582,1583,1584,1585,1586,1587,1588,1589,1590,1591,1592,1593,1594,1595,1596,1597,1598,1599,1600,1601,1602,1603,1604,1605,1606,1607,1608,1609,1610,1611,1612,1613,1614,1615,1616,1617,1618,1619,1620,1621,1622,1623,1624,1625,1626,1627,1628,1629,1630,1631,1632,1633,1634,1635,1636,1637,1638,1639,1640,1641,1642,1643,1644,1645,1646]],[[1647,1648]],[[1649,1650]],[[1651,1652]],[[1653,1654]]],"properties":{"dma_code":9,"dma_name":"Anchorage, AK","latitude":null,"longitude":null}},{"type":"MultiPolygon","arcs":[[[1655]],[[1656]],[[1657]],[[1658]],[[1659]],[[1660]],[[1661]]],"properties":{"dma_code":89,"dma_name":"Honolulu, HI","latitude":null,"longitude":null}},{"type":"Polygon","arcs":[[1662,1663,1664,1665]],"properties":{"dma_code":543,"dma_name":"Springfield-Holyoke, MA","latitude":42.3693645,"longitude":-72.6048435}},{"type":"Polygon","arcs":[[1666,1667,1668]],"properties":{"dma_code":558,"dma_name":"Lima, OH","latitude":40.7817865,"longitude":-84.138567}},{"type":"Polygon","arcs":[[1669,1670,1671,1672]],"properties":{"dma_code":804,"dma_name":"Palm Springs, CA","latitude":33.72988,"longitude":-116.2354255}},{"type":"Polygon","arcs":[[1673,1674,1675,1676,1677]],"properties":{"dma_code":740,"dma_name":"North Platte, NE","latitude":41.394995,"longitude":-100.8359745}},{"type":"MultiPolygon","arcs":[[[1678,1679,1680,1681,1682]],[[1683]],[[1684]],[[1685]],[[1686]],[[1687]],[[1688]],[[1689]],[[1690]],[[1691]],[[1692]],[[1693]],[[1694]],[[1695]],[[1696]],[[1697]],[[1698]],[[1699]],[[1700]],[[1701]],[[1702]],[[1703]],[[1704]],[[1705]],[[1706]],[[1707]],[[1708]],[[1709]],[[1710]],[[1711]],[[1712]],[[1713]],[[1714]],[[1715]],[[1716]],[[1717]],[[1718]],[[1719]],[[1720]],[[1721]],[[1722]],[[1723]],[[1724]],[[1725]],[[1726]],[[1727]],[[1728]],[[1729]],[[1730]],[[1731]],[[1732]],[[1733]],[[1734]],[[1735]],[[1736]],[[1737]],[[1738]],[[1739]],[[1740]],[[1741]],[[1742]],[[1743]],[[1744]],[[1745]],[[1746]],[[1747]],[[1748]],[[1749]],[[1750]],[[1751]],[[1752]],[[1753]],[[1754]],[[1755],[1756]],[[1757]],[[1758]],[[1759]],[[1760]],[[1761]],[[1762]],[[1763]],[[1764]],[[1765]],[[1766]],[[1767]],[[1768]],[[1769]],[[1770]],[[1771]],[[1772]],[[1773]],[[1774]],[[1775]],[[1776]],[[1777]],[[1778]],[[1779]],[[1780]],[[1781]],[[1782]],[[1783]],[[1784]],[[1785]],[[1786]],[[1787]],[[1788]],[[1789]],[[1790]],[[1791]],[[1792]],[[1793]],[[1794]],[[1795]],[[1796]],[[1797]],[[1798]],[[1799]],[[1800]]],"properties":{"dma_code":622,"dma_name":"New Orleans, LA","latitude":29.9741485,"longitude":-90.0846315}},{"type":"MultiPolygon","arcs":[[[1801,1802,1803,1804,1805,1806,1807,1808,1809,1810,1811,1812,1813,1814,1815,1816,1817,1818,1819,1820,1821],[1822]],[[1823]],[[1824]],[[1825]],[[1826]],[[1827]]],"properties":{"dma_code":862,"dma_name":"Sacramento-Stockton-Modesto, CA","latitude":38.7901085,"longitude":-120.9905465}},{"type":"Polygon","arcs":[[1828,1829,1830,1831,1832,1833,1834]],"properties":{"dma_code":771,"dma_name":"Yuma, AZ-El Centro, CA","latitude":32.751631,"longitude":-114.7199435}},{"type":"Polygon","arcs":[[1835,-1814,1836,-1812,1837,-1810,1838,1839,1840,1841,1842,1843,1844,1845,1846,1847,1848,-13,1849,1850]],"properties":{"dma_code":811,"dma_name":"Reno, NV","latitude":39.4857425,"longitude":-118.959563}},{"type":"Polygon","arcs":[[1851,1852,1853,1854,1855,1856]],"properties":{"dma_code":638,"dma_name":"St. Joseph, MO","latitude":40.054863,"longitude":-94.8792055}},{"type":"Polygon","arcs":[[1857,1858,1859,1860,1861,1862,1863,1864,1865,1866,1867,1868,1869,1870,1871,1872,1873,1874,1875,1876,1877,1878,1879]],"properties":{"dma_code":758,"dma_name":"Idaho Falls-Pocatello, ID","latitude":43.641669,"longitude":-112.675734}},{"type":"Polygon","arcs":[[1880,1881,1882,1883,1884,1885,1886,1887,1888,1889,1890,1891,1892,1893,1894]],"properties":{"dma_code":556,"dma_name":"Richmond-Petersburg, VA","latitude":37.4686305,"longitude":-77.5349825}},{"type":"Polygon","arcs":[[1895,1896,1897,1898]],"properties":{"dma_code":610,"dma_name":"Rockford, IL","latitude":42.045223,"longitude":-89.3159825}},{"type":"Polygon","arcs":[[1899,1900,1901,1902,1903,1904,1905,1906,1907,1908,1909,1910]],"properties":{"dma_code":624,"dma_name":"Sioux City, IA","latitude":42.6216745,"longitude":-96.37638}},{"type":"Polygon","arcs":[[1911,1912,1913,1914,1915,1916,1917,1918,1919,1920]],"properties":{"dma_code":609,"dma_name":"St. Louis, MO","latitude":38.434253,"longitude":-90.169254}},{"type":"Polygon","arcs":[[1921,1922,1923,1924,1925,1926,1927,1928,1929,1930]],"properties":{"dma_code":577,"dma_name":"Wilkes Barre-Scranton, PA","latitude":41.248707,"longitude":-76.530153}},{"type":"Polygon","arcs":[[1931,1932,1933,1934,1935,1936,1937,1938,1939]],"properties":{"dma_code":710,"dma_name":"Hattiesburg-Laurel, MS","latitude":31.567019,"longitude":-89.2449615}},{"type":"MultiPolygon","arcs":[[[1940,1941,1942,1943,1944,1945,1946]],[[1947]],[[1948]],[[1949]]],"properties":{"dma_code":538,"dma_name":"Rochester, NY","latitude":42.914174,"longitude":-77.3816465}},{"type":"Polygon","arcs":[[1950,1951,1952,1953,1954,1955,1956,1957]],"properties":{"dma_code":509,"dma_name":"Ft. Wayne, IN","latitude":41.0334615,"longitude":-85.1432505}},{"type":"Polygon","arcs":[[1958,1959,1960]],"properties":{"dma_code":596,"dma_name":"Zanesville, OH","latitude":39.961236,"longitude":-81.962525}},{"type":"Polygon","arcs":[[1961,1962,1963,1964,1965,1966,-1678,1967,1968,1969,-1905,1970,1971]],"properties":{"dma_code":722,"dma_name":"Lincoln & Hastings-Kearney, NE","latitude":41.282859,"longitude":-99.257439}},{"type":"Polygon","arcs":[[1972,1973,1974,1975,1976,1977,1978,1979,1980]],"properties":{"dma_code":649,"dma_name":"Evansville, IN","latitude":37.823926,"longitude":-87.5662395}},{"type":"Polygon","arcs":[[1981,1982,1983,1984,1985,1986,1987,1988,1989,1990]],"properties":{"dma_code":551,"dma_name":"Lansing, MI","latitude":42.4074535,"longitude":-84.6032125}},{"type":"Polygon","arcs":[[1991,1992,1993,1994,1995,1996,1997,1998,1999]],"properties":{"dma_code":502,"dma_name":"Binghamton, NY","latitude":42.2969425,"longitude":-75.495873}},{"type":"Polygon","arcs":[[2000,2001,2002,2003,2004,2005,2006,2007,2008,2009,2010]],"properties":{"dma_code":508,"dma_name":"Pittsburgh, PA","latitude":40.409733,"longitude":-79.6592385}},{"type":"Polygon","arcs":[[2011,2012,2013,2014,-1944,2015,2016,2017,2018,-1992]],"properties":{"dma_code":565,"dma_name":"Elmira, NY","latitude":42.061252,"longitude":-77.1428565}},{"type":"Polygon","arcs":[[2019,2020,2021,2022,2023,2024,2025,2026,2027,2028,2029,2030]],"properties":{"dma_code":755,"dma_name":"Great Falls, MT","latitude":47.8366395,"longitude":-109.93625}},{"type":"MultiPolygon","arcs":[[[2031,2032,2033,2034,2035,2036,2037,2038,2039]],[[2040]],[[2041]]],"properties":{"dma_code":510,"dma_name":"Cleveland-Akron (Canton), OH","latitude":41.0958885,"longitude":-81.71123}},{"type":"Polygon","arcs":[[2042,2043,2044,2045,2046]],"properties":{"dma_code":692,"dma_name":"Beaumont-Port Arthur, TX","latitude":30.3735005,"longitude":-94.1204275}},{"type":"Polygon","arcs":[[2047,2048,2049]],"properties":{"dma_code":583,"dma_name":"Alpena, MI","latitude":44.8580415,"longitude":-83.5748595}},{"type":"Polygon","arcs":[[2050,2051,2052,2053,2054,2055,2056,2057,2058,2059,2060,2061,2062,2063,-1919,2064,2065,2066,2067]],"properties":{"dma_code":619,"dma_name":"Springfield, MO","latitude":37.130047,"longitude":-92.5503395}},{"type":"Polygon","arcs":[[2068,2069,2070,2071,2072,2073,2074,2075,2076,2077,2078,2079],[2080]],"properties":{"dma_code":546,"dma_name":"Columbia, SC","latitude":33.895868,"longitude":-80.9102195}},{"type":"Polygon","arcs":[[2081,2082,2083,2084,2085,2086,2087,2088,2089,2090,2091,2092,2093,2094,2095]],"properties":{"dma_code":790,"dma_name":"Albuquerque-Santa Fe, NM","latitude":34.4952755,"longitude":-106.526644}},{"type":"Polygon","arcs":[[2096,-1938,2097,2098]],"properties":{"dma_code":746,"dma_name":"Biloxi-Gulfport, MS","latitude":30.650938,"longitude":-88.867894}},{"type":"Polygon","arcs":[[2099,2100,2101,2102,2103,2104,2105,2106,2107,2108,2109,2110]],"properties":{"dma_code":630,"dma_name":"Birmingham (Anniston and Tuscaloosa), AL","latitude":33.5035055,"longitude":-86.869635}},{"type":"Polygon","arcs":[[2111,2112,2113,2114,2115,2116]],"properties":{"dma_code":651,"dma_name":"Lubbock, TX","latitude":33.4181925,"longitude":-101.791092}},{"type":"Polygon","arcs":[[2117,2118,2119,2120,2121,2122,2123,2124]],"properties":{"dma_code":597,"dma_name":"Parkersburg, WV","latitude":39.336078,"longitude":-81.4306435}},{"type":"Polygon","arcs":[[2125,-2052,2126,2127,2128,2129,2130,2131,2132]],"properties":{"dma_code":734,"dma_name":"Jonesboro, AR","latitude":36.09929,"longitude":-91.139042}},{"type":"Polygon","arcs":[[2133,2134,2135,2136,2137,2138,-2130,2139,2140,2141,2142,2143,2144,2145,2146,2147]],"properties":{"dma_code":640,"dma_name":"Memphis, TN","latitude":35.206628,"longitude":-89.752071}},{"type":"Polygon","arcs":[[2148,2149,2150,2151,2152,2153,2154,2155,2156,2157,2158,2159,2160,2161,2162,2163,2164,2165,2166,2167,2168,2169,2170,2171,2172]],"properties":{"dma_code":541,"dma_name":"Lexington, KY","latitude":37.584915,"longitude":-83.992847}},{"type":"Polygon","arcs":[[2173,2174,2175,2176,2177,2178,2179,2180,2181,2182,2183,-2136,2184,2185]],"properties":{"dma_code":647,"dma_name":"Greenwood-Greenville, MS","latitude":33.5842305,"longitude":-90.4836945}},{"type":"Polygon","arcs":[[2186,2187,2188,2189,-1901,2190,2191,2192,2193,2194,2195,2196,2197]],"properties":{"dma_code":679,"dma_name":"Des Moines-Ames, IA","latitude":41.882188,"longitude":-93.695408}},{"type":"Polygon","arcs":[[2198,2199,-1819,2200,-1817,2201,2202,2203,2204]],"properties":{"dma_code":866,"dma_name":"Fresno-Visalia, CA","latitude":36.8464585,"longitude":-119.6147045}},{"type":"Polygon","arcs":[[2205,-1829,2206]],"properties":{"dma_code":789,"dma_name":"Tucson (Sierra Vista), AZ","latitude":31.923157,"longitude":-111.1907875}},{"type":"Polygon","arcs":[[2207,2208,2209,2210,2211]],"properties":{"dma_code":516,"dma_name":"Erie, PA","latitude":41.875125,"longitude":-79.7175495}},{"type":"MultiPolygon","arcs":[[[2212,2213]],[[2214]],[[2215]],[[2216],[2217],[2218]],[[2219]],[[2220]],[[2221]],[[2222]],[[2223]],[[2224]]],"properties":{"dma_code":521,"dma_name":"Providence, RI-New Bedford, MA","latitude":41.620932,"longitude":-71.351281}},{"type":"Polygon","arcs":[[2225,2226,2227,2228,2229]],"properties":{"dma_code":617,"dma_name":"Milwaukee, WI","latitude":43.192247,"longitude":-88.354475}},{"type":"MultiPolygon","arcs":[[[2230,2231],[2232]],[[2233]],[[2234]],[[2235]],[[2236]],[[2237]],[[2238]],[[2239]],[[2240]],[[2241]],[[2242]],[[2243]],[[2244]],[[2245]],[[2246]],[[2247]],[[2248]],[[2249]],[[2250]],[[2251]],[[2252]],[[2253]],[[2254]],[[2255]],[[2256]],[[2257]],[[2258]],[[2259]],[[2260]],[[2261]],[[2262]],[[2263]],[[2264]],[[2265]],[[2266]],[[2267]],[[2268]],[[2269]],[[2270]],[[2271]],[[2272]],[[2273]],[[2274]],[[2275]],[[2276]],[[2277]],[[2278]],[[2279]],[[2280]],[[2281]],[[2282]],[[2283]],[[2284]],[[2285]],[[2286]],[[2287]],[[2288]],[[2289]],[[2290]],[[2291]],[[2292]],[[2293]],[[2294]],[[2295]],[[2296]],[[2297]],[[2298]],[[2299]],[[2300]],[[2301]],[[2302]],[[2303]],[[2304]],[[2305]],[[2306]],[[2307]]],"properties":{"dma_code":528,"dma_name":"Miami-Fort Lauderdale, FL","latitude":25.4400565,"longitude":-80.943543}},{"type":"Polygon","arcs":[[2308,2309,2310,2311,2312,-1956,2313,2314,2315]],"properties":{"dma_code":588,"dma_name":"South Bend-Elkhart, IN","latitude":41.57638,"longitude":-86.062447}},{"type":"Polygon","arcs":[[2316,2317,2318,2319,2320,-2021,2321]],"properties":{"dma_code":766,"dma_name":"Helena, MT","latitude":47.184234,"longitude":-112.330214}},{"type":"Polygon","arcs":[[2322,2323,2324,2325,2326]],"properties":{"dma_code":759,"dma_name":"Cheyenne, WY-Scottsbluff, NE","latitude":41.8050495,"longitude":-104.3210655}},{"type":"Polygon","arcs":[[2327,2328,2329,2330,2331,2332]],"properties":{"dma_code":724,"dma_name":"Fargo-Valley City, ND","latitude":47.659718,"longitude":-97.138188}},{"type":"Polygon","arcs":[[2333,2334,-2096,2335,-2114,2336,2337,2338,2339,2340,2341,2342]],"properties":{"dma_code":633,"dma_name":"Odessa-Midland, TX","latitude":30.781491,"longitude":-103.0776135}},{"type":"Polygon","arcs":[[2343,2344,2345,2346,2347,2348]],"properties":{"dma_code":603,"dma_name":"Joplin, MO-Pittsburg, KS","latitude":37.2793855,"longitude":-95.0073945}},{"type":"Polygon","arcs":[[-2196,2349,2350,2351,2352,2353,2354,2355]],"properties":{"dma_code":631,"dma_name":"Ottumwa, IA-Kirksville, MO","latitude":40.3845235,"longitude":-92.5455545}},{"type":"Polygon","arcs":[[2356,2357,2358,2359,2360,2361,2362,2363,2364,2365,2366,2367,2368]],"properties":{"dma_code":525,"dma_name":"Albany, GA","latitude":31.5280885,"longitude":-83.7121945}},{"type":"Polygon","arcs":[[2369,-2082,-2335]],"properties":{"dma_code":765,"dma_name":"El Paso, TX","latitude":31.840946,"longitude":-105.6619925}},{"type":"Polygon","arcs":[[2370,2371,2372,2373]],"properties":{"dma_code":626,"dma_name":"Victoria, TX","latitude":28.795242,"longitude":-96.974015}},{"type":"Polygon","arcs":[[2374,-2003,2375,2376,2377,-2032]],"properties":{"dma_code":536,"dma_name":"Youngstown, OH","latitude":41.042097,"longitude":-80.5432925}},{"type":"MultiPolygon","arcs":[[[2378,2379,2380,2381,2382,-2199,2383,2384]],[[2385]]],"properties":{"dma_code":828,"dma_name":"Monterey-Salinas, CA","latitude":36.5376135,"longitude":-121.265832}},{"type":"MultiPolygon","arcs":[[[-1892,2386,-1890,2387,2388,2389,2390,2391,-2009,2392,2393,2394,2395,2396,2397,2398,2399]],[[2400]],[[2401]]],"properties":{"dma_code":511,"dma_name":"Washington, DC (Hagerstown, MD)","latitude":39.127683,"longitude":-77.903685}},{"type":"Polygon","arcs":[[2402,2403,2404,-2332,2405,2406,2407,2408,2409,2410,2411,2412,2413,2414,2415,2416]],"properties":{"dma_code":613,"dma_name":"Minneapolis-St. Paul, MN","latitude":46.019981,"longitude":-94.1986015}},{"type":"MultiPolygon","arcs":[[[2417,2418,2419,2420]],[[2421,2422,2423,2424,-8,2425,2426,-2325,2427,2428,2429,-1674,-1967,2430,2431,2432,2433,-2089,2434,2435,2436,2437]],[[2438,2439]],[[2440,-1848,2441,2442]],[[2443,2444]]],"properties":{"dma_code":751,"dma_name":"Denver, CO","latitude":40.996689,"longitude":-108.9254715}},{"type":"MultiPolygon","arcs":[[[2445,2446,2447,2448,2449,2450,2451,2452,2453,2454]],[[2455]],[[2456]],[[2457]],[[2458]],[[2459]],[[2460]],[[2461]]],"properties":{"dma_code":534,"dma_name":"Orlando-Daytona Beach-Melbourne, FL","latitude":28.6559525,"longitude":-81.491431}},{"type":"MultiPolygon","arcs":[[[2462]],[[2463]],[[2464]],[[2465]],[[2466]],[[2467]],[[2468]],[[2469]],[[2470]],[[2471]],[[2472,2473,-1881,2474]],[[2475]],[[2476]],[[2477]],[[2478]],[[2479]]],"properties":{"dma_code":544,"dma_name":"Norfolk-Portsmouth-Newport News, VA","latitude":36.608336,"longitude":-76.3720915}},{"type":"Polygon","arcs":[[-1911,2480,-2416,2481,2482]],"properties":{"dma_code":737,"dma_name":"Mankato, MN","latitude":43.8765135,"longitude":-94.4382305}},{"type":"Polygon","arcs":[[2483,2484,2485,2486,2487,2488,2489,2490,2491,2492,2493,2494,2495,2496]],"properties":{"dma_code":623,"dma_name":"Dallas-Ft. Worth, TX","latitude":32.702473,"longitude":-97.0917605}},{"type":"Polygon","arcs":[[2497,2498,2499,-1888,2500,2501]],"properties":{"dma_code":584,"dma_name":"Charlottesville, VA","latitude":38.1750125,"longitude":-78.4610955}},{"type":"Polygon","arcs":[[2502,-1663,2503,2504,2505,-1997,2506,2507,2508,2509,2510,2511]],"properties":{"dma_code":532,"dma_name":"Albany-Schenectady-Troy, NY","latitude":43.049266,"longitude":-73.843583}},{"type":"Polygon","arcs":[[-2312,2512,2513,2514,2515,-1985,2516,-1983,2517]],"properties":{"dma_code":563,"dma_name":"Grand Rapids-Kalamazoo-Battle Creek, MI","latitude":42.7892405,"longitude":-85.6252065}},{"type":"Polygon","arcs":[[2518,2519,2520,-1963,2521,-1857,2522,2523]],"properties":{"dma_code":605,"dma_name":"Topeka, KS","latitude":39.0201515,"longitude":-96.555714}},{"type":"Polygon","arcs":[[2524,2525,2526,2527,2528,2529,2530,2531,-2486]],"properties":{"dma_code":625,"dma_name":"Waco-Temple-Bryan, TX","latitude":31.078621,"longitude":-97.3521605}},{"type":"MultiPolygon","arcs":[[[2532,2533,2534,2535,2536,2537]],[[2538]],[[2539]],[[2540]]],"properties":{"dma_code":656,"dma_name":"Panama City, FL","latitude":30.2938145,"longitude":-85.365725}},{"type":"Polygon","arcs":[[2541,2542,2543,2544,2545,-2357,2546,2547,2548]],"properties":{"dma_code":606,"dma_name":"Dothan, AL","latitude":31.2429295,"longitude":-85.411973}},{"type":"MultiPolygon","arcs":[[[2549,2550,2551,2552,2553,2554,2555,2556,2557,2558,2559,2560,2561,2562,2563,2564,2565,2566]],[[-2165,2567,-2163,2568]]],"properties":{"dma_code":531,"dma_name":"Tri-Cities, TN-VA","latitude":36.7298185,"longitude":-82.468517}},{"type":"Polygon","arcs":[[2569,-1831],[2570],[2571]],"properties":{"dma_code":825,"dma_name":"San Diego, CA","latitude":33.0195915,"longitude":-116.838334}},{"type":"MultiPolygon","arcs":[[[2572,2573,2574,2575,-2398]],[[2576]],[[2577]],[[2578]],[[2579]],[[2580]],[[2581]],[[2582]],[[2583]]],"properties":{"dma_code":512,"dma_name":"Baltimore, MD","latitude":38.9700815,"longitude":-76.506469}},{"type":"Polygon","arcs":[[2584,2585,2586,2587,2588,2589,2590,2591,2592,2593,-2226,2594]],"properties":{"dma_code":669,"dma_name":"Madison, WI","latitude":43.370746,"longitude":-89.9665875}},{"type":"MultiPolygon","arcs":[[[2595,-1804,2596,-1802,2597,2598]],[[2599,-2382,2600,-2380,2601,-1821,2602],[-2386]],[[-1823]],[[2603]],[[2604]],[[2605]],[[2606],[2607]],[[2608]]],"properties":{"dma_code":807,"dma_name":"San Francisco-Oakland-San Jose, CA","latitude":38.4480395,"longitude":-122.6155605}},{"type":"Polygon","arcs":[[2609,2610,-1929,2611,2612,2613,-2396,2614]],"properties":{"dma_code":566,"dma_name":"Harrisburg-Lancaster-Lebanon-York, PA","latitude":40.283571,"longitude":-76.884283}},{"type":"MultiPolygon","arcs":[[[2615,2616,2617,2618,2619,2620,2621,2622]],[[2623]],[[2624]],[[2625]]],"properties":{"dma_code":855,"dma_name":"Santa Barbara-Santa Maria-San Luis Obispo, CA","latitude":34.844663,"longitude":-120.393509}},{"type":"Polygon","arcs":[[2626,2627,2628]],"properties":{"dma_code":582,"dma_name":"Lafayette, IN","latitude":40.34518,"longitude":-87.113036}},{"type":"MultiPolygon","arcs":[[[2629,2630,2631,2632,-2621,2633,-2619,2634,-2617,2635]],[[2636]]],"properties":{"dma_code":800,"dma_name":"Bakersfield, CA","latitude":35.291571,"longitude":-119.05459}},{"type":"MultiPolygon","arcs":[[[2637,2638,2639,2640,-2228,2641,-2593]],[[2642]],[[2643]],[[2644]],[[2645]],[[2646]]],"properties":{"dma_code":658,"dma_name":"Green Bay-Appleton, WI","latitude":44.764382,"longitude":-88.2018395}},{"type":"Polygon","arcs":[[-2592,2647,-2590,2648,2649,2650,2651,2652,2653,2654,-2638]],"properties":{"dma_code":705,"dma_name":"Wausau-Rhinelander, WI","latitude":44.9703815,"longitude":-89.6756975}},{"type":"Polygon","arcs":[[2655,2656,2657,-15,-2443,2658,-1846,2659,2660,-1861,2661,-1859,2662,-1,2663,-10,2664,-2424,2665]],"properties":{"dma_code":770,"dma_name":"Salt Lake City, UT","latitude":40.231376,"longitude":-112.2616715}},{"type":"MultiPolygon","arcs":[[[2666,-2632,2667,-2630,2668,-2203,2669,2670,2671,2672,2673,2674,-1672,2675,2676],[-2637]],[[2677]],[[2678]],[[2679]],[[2680]],[[2681]]],"properties":{"dma_code":803,"dma_name":"Los Angeles, CA","latitude":35.1329985,"longitude":-116.8549775}},{"type":"Polygon","arcs":[[2682,2683,2684,-2091,2685,2686,-2432,2687,-2444,2688]],"properties":{"dma_code":752,"dma_name":"Colorado Springs-Pueblo, CO","latitude":38.0613345,"longitude":-104.0271685}},{"type":"Polygon","arcs":[[-2193,2689,-2414,2690,2691,2692,2693,2694]],"properties":{"dma_code":611,"dma_name":"Rochester, MN-Mason City, IA-Austin, MN","latitude":43.5521695,"longitude":-92.8507865}},{"type":"Polygon","arcs":[[-2510,2695,2696,2697,2698,2699,2700,2701,2702,2703,2704]],"properties":{"dma_code":523,"dma_name":"Burlington, VT-Plattsburgh, NY","latitude":44.0723395,"longitude":-73.0368725}},{"type":"MultiPolygon","arcs":[[[2705,2706],[2707]],[[2708]]],"properties":{"dma_code":533,"dma_name":"Hartford & New Haven, CT","latitude":41.6108335,"longitude":-72.6525295}},{"type":"MultiPolygon","arcs":[[[2709,2710,-2613,2711,-1927,2712,2713,2714,2715,2716,2717]],[[2718]],[[2719]],[[2720]],[[2721]],[[2722]],[[2723]],[[2724],[2725]],[[2726]],[[2727]],[[2728]],[[2729]],[[2730]],[[2731]],[[2732]],[[2733]],[[2734]],[[2735]]],"properties":{"dma_code":504,"dma_name":"Philadelphia, PA","latitude":39.899259,"longitude":-75.3868975}},{"type":"Polygon","arcs":[[-1835,2736,2737,-2673,2738,-20,2739,-18,2740,2741,2742,-2084,2743,-2207]],"properties":{"dma_code":753,"dma_name":"Phoenix, AZ","latitude":34.7143685,"longitude":-111.900709}},{"type":"Polygon","arcs":[[2744,-2147,2745,2746,2747,2748]],"properties":{"dma_code":639,"dma_name":"Jackson, TN","latitude":35.5730555,"longitude":-88.530231}},{"type":"Polygon","arcs":[[2749,2750,2751,2752,-1842,2753,-1806,2754,-2599,2755]],"properties":{"dma_code":868,"dma_name":"Chico-Redding, CA","latitude":40.331893,"longitude":-122.350166}},{"type":"Polygon","arcs":[[2756,2757,2758,2759,2760,2761,2762,2763,2764,-1866,2765,2766,2767,2768,2769,2770,2771]],"properties":{"dma_code":757,"dma_name":"Boise, ID","latitude":43.632029,"longitude":-117.0232835}},{"type":"Polygon","arcs":[[2772,2773,2774,2775,2776,2777,2778,2779,2780,2781]],"properties":{"dma_code":810,"dma_name":"Yakima-Pasco-Richland-Kennewick, WA","latitude":46.2956245,"longitude":-119.74848}},{"type":"MultiPolygon","arcs":[[[2782,2783,-2775,2784,2785,2786]],[[2787]],[[2788]],[[2789]],[[2790]],[[2791]],[[2792]],[[2793]],[[2794]],[[2795]],[[2796]],[[2797]],[[2798]],[[2799]],[[2800]],[[2801]],[[2802]],[[2803]],[[2804]],[[2805]],[[2806]],[[2807]],[[2808]],[[2809]],[[2810]],[[2811]],[[2812]],[[2813]],[[2814]],[[2815]],[[2816]],[[2817]],[[2818]],[[2819]],[[2820]],[[2821]],[[2822]],[[2823]]],"properties":{"dma_code":819,"dma_name":"Seattle-Tacoma, WA","latitude":47.6212965,"longitude":-121.842294}},{"type":"MultiPolygon","arcs":[[[2824,2825,2826,2827,2828],[2829]],[[2830]],[[2831]],[[2832]],[[2833]],[[2834]],[[2835]],[[2836]],[[2837]],[[2838]],[[2839]],[[2840]],[[2841]],[[2842]],[[2843]],[[2844]],[[2845]],[[2846]],[[2847]]],"properties":{"dma_code":571,"dma_name":"Ft. Myers-Naples, FL","latitude":26.5720265,"longitude":-81.6230635}},{"type":"Polygon","arcs":[[-1863,2848,2849,-2771,2850,-2769,2851,2852]],"properties":{"dma_code":760,"dma_name":"Twin Falls, ID","latitude":42.990566,"longitude":-114.0438455}},{"type":"Polygon","arcs":[[-2494,2853,-2492,2854,2855,2856,2857,2858,2859,2860,2861,2862,2863,2864,2865]],"properties":{"dma_code":657,"dma_name":"Sherman, TX-Ada, OK","latitude":34.1815195,"longitude":-96.2500255}},{"type":"MultiPolygon","arcs":[[[2866]],[[2867,2868,-2446,2869]],[[2870]],[[2871]],[[2872]],[[2873]],[[2874]],[[2875]],[[2876]]],"properties":{"dma_code":548,"dma_name":"West Palm Beach-Ft. Pierce, FL","latitude":27.090153,"longitude":-80.6221145}},{"type":"Polygon","arcs":[[2877,2878,-2031,2879,2880,2881,2882,2883,2884,2885,2886,2887,-3,-1880,2888,-1878,2889]],"properties":{"dma_code":756,"dma_name":"Billings, MT","latitude":45.8919865,"longitude":-108.195493}},{"type":"Polygon","arcs":[[-1972,2890,-1903,2891,-2189,2892,-2187,2893,-1854,2894,2895]],"properties":{"dma_code":652,"dma_name":"Omaha, NE","latitude":41.1056295,"longitude":-96.1509585}},{"type":"MultiPolygon","arcs":[[[2896,2897,2898]],[[2899]],[[2900]],[[2901]],[[2902]],[[2903]]],"properties":{"dma_code":576,"dma_name":"Salisbury, MD","latitude":38.4437985,"longitude":-75.549517}},{"type":"Polygon","arcs":[[2904,2905,2906,2907,2908,2909,2910,2911,2912,-2404,2913,-1908,2914,2915,-1969,2916]],"properties":{"dma_code":725,"dma_name":"Sioux Falls (Mitchell), SD","latitude":44.013456,"longitude":-98.7362785}},{"type":"Polygon","arcs":[[2917,2918,2919,2920,2921,2922,2923,-1898,2924,2925,2926,-2309]],"properties":{"dma_code":602,"dma_name":"Chicago, IL","latitude":41.616336,"longitude":-87.8267995}},{"type":"MultiPolygon","arcs":[[[2927,-2825,2928,2929,2930,2931,-2447]],[[2932]],[[2933]],[[2934]],[[2935]],[[2936]],[[2937]],[[2938]],[[2939]],[[2940]],[[2941]],[[2942]],[[2943]],[[2944]],[[2945]],[[2946]],[[2947]],[[2948]],[[2949]],[[2950]],[[2951]],[[2952]],[[2953]],[[2954]],[[2955]],[[2956]],[[2957]],[[2958]],[[2959]],[[2960]],[[2961]],[[2962]],[[2963]],[[2964]],[[2965]],[[2966]],[[2967]],[[2968]],[[2969]],[[2970]],[[2971]],[[2972]],[[2973]],[[2974]],[[2975]],[[2976]],[[2977]],[[2978]]],"properties":{"dma_code":539,"dma_name":"Tampa-St. Petersburg (Sarasota), FL","latitude":27.999049,"longitude":-81.8971645}},{"type":"Polygon","arcs":[[2979,2980,2981,2982,2983,-2530,2984,2985]],"properties":{"dma_code":635,"dma_name":"Austin, TX","latitude":30.331427,"longitude":-98.0272995}},{"type":"MultiPolygon","arcs":[[[-1665,2986,-2512,2987,-2704,2988,2989,2990,-2214,2991]],[[2992]],[[2993]],[[2994]],[[2995]],[[2996]],[[2997]],[[2998]],[[2999]],[[3000]],[[3001]],[[3002]],[[3003]],[[3004]],[[3005]],[[3006]],[[3007]],[[3008]],[[3009]],[[3010]],[[3011]],[[3012]]],"properties":{"dma_code":506,"dma_name":"Boston, MA (Manchester, NH)","latitude":42.501023,"longitude":-71.467086}},{"type":"MultiPolygon","arcs":[[[3013,-2422]],[[3014,3015,3016,-2087,3017]]],"properties":{"dma_code":773,"dma_name":"Grand Junction-Montrose, CO","latitude":38.425747,"longitude":-108.218863}},{"type":"Polygon","arcs":[[3018,3019,-2194,-2695,3020,3021,3022,-2586]],"properties":{"dma_code":637,"dma_name":"Cedar Rapids-Waterloo-Iowa City & Dubuque, IA","latitude":42.331209,"longitude":-91.7504565}},{"type":"Polygon","arcs":[[3023,3024]],"properties":{"dma_code":552,"dma_name":"Presque Isle, ME","latitude":46.516167,"longitude":-68.886843}},{"type":"Polygon","arcs":[[-1876,3025,-1874,3026,3027,-1871,3028,3029,3030,-2317,3031,-2878,3032]],"properties":{"dma_code":754,"dma_name":"Butte-Bozeman, MT","latitude":45.979253,"longitude":-112.360964}},{"type":"Polygon","arcs":[[3033,-2411,3034,-2409,3035,3036,-2650,3037,-2588,3038,-3022,3039,-2693]],"properties":{"dma_code":702,"dma_name":"La Crosse-Eau Claire, WI","latitude":44.3136705,"longitude":-91.1975}},{"type":"Polygon","arcs":[[3040,3041,3042,3043,3044,-1965,3045,-2520,3046]],"properties":{"dma_code":678,"dma_name":"Wichita-Hutchinson, KS Plus","latitude":38.672948,"longitude":-99.0049395}},{"type":"Polygon","arcs":[[3047,-2108,3048,-2106,3049,3050,3051,3052,3053,3054,3055,3056,3057]],"properties":{"dma_code":524,"dma_name":"Atlanta, GA","latitude":33.9255755,"longitude":-84.333567}},{"type":"Polygon","arcs":[[3058,3059,3060,3061,3062,-1987,3063,3064]],"properties":{"dma_code":513,"dma_name":"Flint-Saginaw-Bay City, MI","latitude":43.643803,"longitude":-83.847331}},{"type":"Polygon","arcs":[[3065,3066,3067,3068,3069,-2921,3070,3071,3072,-1914,3073]],"properties":{"dma_code":648,"dma_name":"Champaign & Springfield-Decatur, IL","latitude":39.9606635,"longitude":-89.0624215}},{"type":"Polygon","arcs":[[-2104,3074,3075,3076,3077,3078,3079]],"properties":{"dma_code":691,"dma_name":"Huntsville-Decatur (Florence), AL","latitude":34.795438,"longitude":-86.8583345}},{"type":"Polygon","arcs":[[-2508,3080,3081,3082,3083,3084,3085]],"properties":{"dma_code":526,"dma_name":"Utica, NY","latitude":43.205527,"longitude":-75.026249}},{"type":"Polygon","arcs":[[3086,3087,3088,-3083,3089,-1994,3090,-2018,3091,-1941]],"properties":{"dma_code":555,"dma_name":"Syracuse, NY","latitude":42.9849975,"longitude":-76.0818585}},{"type":"MultiPolygon","arcs":[[[-2990,3092,-2702,3093,-2700,3094,3095,3096,3097,3098,3099,3100]],[[3101]],[[3102]],[[3103]],[[3104]],[[3105]],[[3106]],[[3107]],[[3108]],[[3109]],[[3110]],[[3111]],[[3112]],[[3113]],[[3114]],[[3115]],[[3116]],[[3117]],[[3118]],[[3119]],[[3120]],[[3121]],[[3122]],[[3123]],[[3124]],[[3125]],[[3126]],[[3127]],[[3128]],[[3129]],[[3130]],[[3131]],[[3132]],[[3133]],[[3134]]],"properties":{"dma_code":500,"dma_name":"Portland-Auburn, ME","latitude":44.366668,"longitude":-70.1823755}},{"type":"MultiPolygon","arcs":[[[3135,3136,-1958,3137,-1991,3138,3139,3140,3141,-2038,3142,3143]],[[3144]],[[3145]],[[3146]],[[3147]],[[3148]]],"properties":{"dma_code":547,"dma_name":"Toledo, OH","latitude":41.3846185,"longitude":-83.7580475}},{"type":"Polygon","arcs":[[3149,3150,3151,3152,-2391,3153]],"properties":{"dma_code":569,"dma_name":"Harrisonburg, VA","latitude":38.4196,"longitude":-79.0679395}},{"type":"MultiPolygon","arcs":[[[-2786,3154,-2773,-2758,3155,3156,3157,3158,3159,3160,3161,3162,3163],[3164]],[[3165,3166,-2762,3167,-2760,3168,-2781,3169]]],"properties":{"dma_code":820,"dma_name":"Portland, OR","latitude":44.1900555,"longitude":-120.4497925}},{"type":"Polygon","arcs":[[3170,3171,3172,3173,-2923,3174,-3069,3175]],"properties":{"dma_code":675,"dma_name":"Peoria-Bloomington, IL","latitude":40.6866725,"longitude":-89.343186}},{"type":"Polygon","arcs":[[3176,3177,3178,3179,-2627,3180,-2919,3181,-2315,3182,-1954,3183,3184,3185,3186,3187]],"properties":{"dma_code":527,"dma_name":"Indianapolis, IN","latitude":39.84288,"longitude":-86.165222}},{"type":"MultiPolygon","arcs":[[[-2717,3188,3189,-2714,3190,-1925,3191,3192,-2505,3193,-2706,3194],[3195]],[[3196]],[[3197]],[[3198]],[[3199]],[[3200]],[[3201]],[[3202]],[[3203]],[[3204]],[[3205]],[[3206]],[[3207]],[[3208]],[[3209]],[[3210]],[[3211]],[[3212]],[[3213]],[[3214]],[[3215]],[[3216]],[[3217]],[[3218]],[[3219]],[[3220]],[[3221]],[[3222]],[[3223]],[[3224]],[[3225]]],"properties":{"dma_code":501,"dma_name":"New York, NY","latitude":40.839717,"longitude":-73.6072985}},{"type":"Polygon","arcs":[[-1856,3226,-2197,-2356,3227,3228,3229,3230,-2059,3231,-2523]],"properties":{"dma_code":616,"dma_name":"Kansas City, MO","latitude":39.3018455,"longitude":-94.208994}},{"type":"Polygon","arcs":[[3232,3233,3234,3235,3236,3237,-3051]],"properties":{"dma_code":575,"dma_name":"Chattanooga, TN","latitude":35.20417,"longitude":-84.8019295}},{"type":"MultiPolygon","arcs":[[[3238,3239,3240,-2986,3241,-2528,3242,3243,3244,-2044],[3245]],[[3246]],[[3247]],[[3248]],[[3249]],[[3250]],[[-2374,3251]],[[3252]],[[3253]],[[3254]],[[3255],[3256]],[[3257]]],"properties":{"dma_code":618,"dma_name":"Houston, TX","latitude":29.606085,"longitude":-95.645983}},{"type":"Polygon","arcs":[[3258,-3019,-2585,-1896,3259,-3173,3260,3261,3262]],"properties":{"dma_code":682,"dma_name":"Davenport, IA-Rock Island-Moline, IL","latitude":41.5680725,"longitude":-90.4412815}},{"type":"Polygon","arcs":[[3263,3264,3265,3266,-3185,3267,3268,3269,3270]],"properties":{"dma_code":542,"dma_name":"Dayton, OH","latitude":40.139278,"longitude":-84.357611}},{"type":"Polygon","arcs":[[-3271,3271,-3144,3272,-2036,3273,-1960,3274,3275,3276,-2121,3277,3278,3279,3280,3281]],"properties":{"dma_code":535,"dma_name":"Columbus, OH","latitude":39.9726245,"longitude":-82.7332055}},{"type":"MultiPolygon","arcs":[[[3282,-2407,3283,3284,3285,3286,-2652,3287]],[[3288]],[[3289]],[[3290]],[[3291]],[[3292]],[[3293],[3294]]],"properties":{"dma_code":676,"dma_name":"Duluth, MN-Superior, WI","latitude":47.174751,"longitude":-91.710686}},{"type":"Polygon","arcs":[[3295,3296,3297,-2864,3298,3299,3300,3301,-2056,3302]],"properties":{"dma_code":670,"dma_name":"Ft. Smith-Fayetteville-Springdale-Rogers, AR","latitude":35.503013,"longitude":-94.205372}},{"type":"Polygon","arcs":[[3303,3304,3305,-2186,3306,-2134,3307,3308,3309,-2102]],"properties":{"dma_code":673,"dma_name":"Columbus-Tupelo-West Point, MS","latitude":33.957371,"longitude":-88.9390735}},{"type":"MultiPolygon","arcs":[[[3310,3311,-2418,3312,3313,3314,3315,3316,3317,3318,-2905,-1676,3319,-2429,3320,-2323,-2440,3321]],[[-5,3322,-2887,3323,3324]]],"properties":{"dma_code":764,"dma_name":"Rapid City, SD","latitude":43.764924,"longitude":-104.4791845}},{"type":"Polygon","arcs":[[-2329,3325,-2911,3326,3327,3328,-2907,3329,-3318,3330,3331,3332,3333,3334,-2881,3335,-2029,3336]],"properties":{"dma_code":687,"dma_name":"Minot-Bismarck-Dickinson(Williston), ND","latitude":46.8619435,"longitude":-102.7166995}},{"type":"Polygon","arcs":[[3337,-2394,3338,3339,-2006,3340,3341,-1931,3342,-2610]],"properties":{"dma_code":574,"dma_name":"Johnstown-Altoona, PA","latitude":40.675738,"longitude":-78.333224}},{"type":"Polygon","arcs":[[3343,3344,-3159,3345,3346]],"properties":{"dma_code":821,"dma_name":"Bend, OR","latitude":44.0018155,"longitude":-120.9495205}},{"type":"Polygon","arcs":[[3347,-1912,3348,3349,-2352,3350,-3262,3351,-3171,3352,3353,-3066]],"properties":{"dma_code":717,"dma_name":"Quincy, IL-Hannibal, MO-Keokuk, IA","latitude":40.066338,"longitude":-91.172926}},{"type":"MultiPolygon","arcs":[[[-3140,3354,-1989,3355,-3062,3356]],[[3357]],[[3358],[3359]],[[3360]],[[3361]],[[3362]],[[3363]],[[3364]],[[3365]],[[3366]],[[3367]]],"properties":{"dma_code":505,"dma_name":"Detroit, MI","latitude":42.7069935,"longitude":-83.2883905}},{"type":"Polygon","arcs":[[3368,3369,3370,-2764,3371,-3166,3372,-2779,3373,3374,3375,-2783,3376,3377,3378,3379,3380,3381,3382,3383,3384]],"properties":{"dma_code":881,"dma_name":"Spokane, WA","latitude":47.0401465,"longitude":-117.602985}},{"type":"Polygon","arcs":[[3385,3386,-2154,3387,3388,-3188,3389,-3265,3390,-3281,3391]],"properties":{"dma_code":515,"dma_name":"Cincinnati, OH","latitude":39.0338655,"longitude":-84.356304}},{"type":"Polygon","arcs":[[-1977,3392,-3177,-3389,3393,-2152,3394,3395,3396]],"properties":{"dma_code":529,"dma_name":"Louisville, KY","latitude":38.1524665,"longitude":-85.7750445}},{"type":"MultiPolygon","arcs":[[[-2697,3397,-3085,3398,-3088,3399],[3400],[3401]],[[3402]],[[3403]],[[3404]],[[3405]],[[3406]],[[3407]],[[3408]],[[3409]]],"properties":{"dma_code":549,"dma_name":"Watertown, NY","latitude":44.217804,"longitude":-75.4861025}},{"type":"Polygon","arcs":[[-1921,3410,-2063,3411,3412,-3229,3413,-2354,3414,-3349]],"properties":{"dma_code":604,"dma_name":"Columbia-Jefferson City, MO","latitude":38.8582025,"longitude":-92.274015}},{"type":"Polygon","arcs":[[-2883,3415,-3334,3416,-3332,3417,-3316,3418]],"properties":{"dma_code":798,"dma_name":"Glendive, MT","latitude":46.836368,"longitude":-105.065505}},{"type":"Polygon","arcs":[[3419,3420,3421,3422,3423,-3347,3424,-3157,3425,-1844,3426,-2752,3427,3428]],"properties":{"dma_code":813,"dma_name":"Medford-Klamath Falls, OR","latitude":42.304871,"longitude":-121.9630515}},{"type":"MultiPolygon","arcs":[[[3429,-1946,3430,-2014,3431,3432,3433,-2209],[3434],[3435]],[[3436]],[[3437],[3438]],[[3439]],[[3440]]],"properties":{"dma_code":514,"dma_name":"Buffalo, NY","latitude":42.4241775,"longitude":-78.6800405}},{"type":"Polygon","arcs":[[3441,-3163,3442,-3161,3443,3444,-3423,3445,-3421]],"properties":{"dma_code":801,"dma_name":"Eugene, OR","latitude":43.6938285,"longitude":-123.123445}},{"type":"MultiPolygon","arcs":[[[-2750,3446,-3429,3447]],[[3448]],[[3449]]],"properties":{"dma_code":802,"dma_name":"Eureka, CA","latitude":41.001088,"longitude":-123.9077705}},{"type":"MultiPolygon","arcs":[[[3450,3451]],[[3452]],[[3453]],[[3454]],[[3455]],[[3456]],[[3457]],[[3458]],[[3459]],[[-2048,3460,-3059,3461,-2514,3462]],[[3463]],[[3464]],[[3465]],[[3466]]],"properties":{"dma_code":540,"dma_name":"Traverse City-Cadillac, MI","latitude":45.1195525,"longitude":-84.948655}},{"type":"Polygon","arcs":[[-3382,3467,-3380,3468,-3378,3469,-2027,3470,-2025,3471,3472,-2319,3473,-3030,3474,3475,-3385,3476,3477]],"properties":{"dma_code":762,"dma_name":"Missoula, MT","latitude":47.230274,"longitude":-114.4641895}},{"type":"MultiPolygon","arcs":[[[3478,3479,3480,3481,3482,3483,3484,3485,-2454,3486,-2452,3487]],[[3488]],[[3489]],[[3490]],[[3491]],[[3492]],[[3493]],[[3494]],[[3495]],[[3496]]],"properties":{"dma_code":561,"dma_name":"Jacksonville, FL","latitude":30.427575,"longitude":-82.006576}},{"type":"Polygon","arcs":[[3497,3498,-2553,3499,3500,3501,3502,-2074,3503]],"properties":{"dma_code":517,"dma_name":"Charlotte, NC","latitude":35.477172,"longitude":-80.76968}},{"type":"Polygon","arcs":[[3504,3505,3506,3507,-2112,3508,3509,-2488]],"properties":{"dma_code":662,"dma_name":"Abilene-Sweetwater, TX","latitude":32.404348,"longitude":-99.8293625}},{"type":"MultiPolygon","arcs":[[[-3100,3510,3511,-3097,3512,-3025,3513]],[[3514]],[[3515]],[[3516]],[[3517]],[[3518]],[[3519]],[[3520]],[[3521]],[[3522]],[[3523]],[[3524]],[[3525]],[[3526]]],"properties":{"dma_code":537,"dma_name":"Bangor, ME","latitude":45.3356845,"longitude":-68.751059}},{"type":"Polygon","arcs":[[3527,-2116,3528,-2094,3529,-2683,-3044,3530,3531,3532]],"properties":{"dma_code":634,"dma_name":"Amarillo, TX","latitude":35.4797235,"longitude":-102.0636145}},{"type":"Polygon","arcs":[[-2552,3533,3534,3535,3536,3537,3538,-3500],[3539]],"properties":{"dma_code":518,"dma_name":"Greensboro-High Point-Winston Salem, NC","latitude":36.004723,"longitude":-80.4077355}},{"type":"Polygon","arcs":[[3540,3541,3542,3543,3544,3545,-2858,3546,-2856,3547,3548,3549,3550]],"properties":{"dma_code":650,"dma_name":"Oklahoma City, OK","latitude":35.6670785,"longitude":-97.992482}},{"type":"MultiPolygon","arcs":[[[3551]],[[3552,-2640,3553,-2654,3554,-3286,3555,-3452]],[[3556]]],"properties":{"dma_code":553,"dma_name":"Marquette, MI","latitude":46.870498,"longitude":-87.8765355}},{"type":"Polygon","arcs":[[3557,3558,-1980,3559,3560,3561,3562,3563,3564,3565,3566,3567,-3235,3568,-3078,3569,-2747,3570]],"properties":{"dma_code":659,"dma_name":"Nashville, TN","latitude":36.073653,"longitude":-86.631128}},{"type":"MultiPolygon","arcs":[[[3571,3572,3573,3574,-2343,3575,3576,-2981,3577,3578,3579]],[[-3246]]],"properties":{"dma_code":641,"dma_name":"San Antonio, TX","latitude":29.2655175,"longitude":-99.1607395}},{"type":"Polygon","arcs":[[3580,3581,3582,3583,3584,-2110,3585,3586,3587,3588,-2543]],"properties":{"dma_code":698,"dma_name":"Montgomery-Selma, AL","latitude":32.050293,"longitude":-86.7641935}},{"type":"Polygon","arcs":[[3589,-2862,3590,-2860,3591,-3545,3592,-3543,3593,-3042,3594,-2345,3595,-3300]],"properties":{"dma_code":671,"dma_name":"Tulsa, OK","latitude":35.9900425,"longitude":-95.7686325}},{"type":"Polygon","arcs":[[3596,-2034,3597,-2377,3598,-2001,3599,3600,3601,-2124,3602,3603,-3276,3604]],"properties":{"dma_code":554,"dma_name":"Wheeling, WV-Steubenville, OH","latitude":39.96655,"longitude":-81.059158}},{"type":"Polygon","arcs":[[3605,-3533,3606,-3551,3607,-3549,3608,-2490,3609,-3509]],"properties":{"dma_code":627,"dma_name":"Wichita Falls, TX-Lawton, OK","latitude":33.9059285,"longitude":-99.027755}},{"type":"Polygon","arcs":[[3610,3611,3612,-2555,3613,-3498,3614,-2072,3615,3616,3617,3618,-3053,3619]],"properties":{"dma_code":567,"dma_name":"Greenville-Spartanburg, SC-Asheville, NC-Anderson,SC","latitude":35.056155,"longitude":-82.7025095}},{"type":"MultiPolygon","arcs":[[[-2099,3620,-1936,3621,3622,3623,-3582,3624,-2534,3625]],[[3626]],[[3627]],[[3628]],[[3629]],[[3630]]],"properties":{"dma_code":686,"dma_name":"Mobile, AL-Pensacola (Ft. Walton Beach), FL","latitude":31.1061175,"longitude":-87.6151885}},{"type":"MultiPolygon","arcs":[[[3631,3632,3633,3634,3635,3636,3637]],[[3638]],[[3639]],[[3640]],[[3641]],[[3642]]],"properties":{"dma_code":519,"dma_name":"Charleston, SC","latitude":33.181204,"longitude":-80.042272}},{"type":"Polygon","arcs":[[3643,3644,3645,3646,3647,3648,3649,3650,-2498,3651,-1885,3652,3653,3654,3655,3656,3657,-3535,3658,-2550]],"properties":{"dma_code":573,"dma_name":"Roanoke-Lynchburg, VA","latitude":37.640275,"longitude":-79.9113685}},{"type":"Polygon","arcs":[[3659,-3563,3660,-3561,3661,-1978,-3397,3662,-2149]],"properties":{"dma_code":736,"dma_name":"Bowling Green, KY","latitude":37.0341725,"longitude":-85.9941175}},{"type":"MultiPolygon","arcs":[[[3663,3664,-3538,3665,3666,3667,-3654,3668,-1883,3669,3670,3671,3672,3673,3674,3675]],[[-3540]],[[3676]]],"properties":{"dma_code":560,"dma_name":"Raleigh-Durham (Fayetteville), NC","latitude":35.72255,"longitude":-78.42045}},{"type":"Polygon","arcs":[[3677,3678,-2046,3679,3680]],"properties":{"dma_code":643,"dma_name":"Lake Charles, LA","latitude":30.239188,"longitude":-93.2560415}},{"type":"Polygon","arcs":[[3681,3682,3683,3684,3685,-1681,3686,-1679,3687,3688,3689]],"properties":{"dma_code":716,"dma_name":"Baton Rouge, LA","latitude":30.4252995,"longitude":-91.1409465}},{"type":"MultiPolygon","arcs":[[[3690,3691,-3479,3692,-2450,3693]],[[3694]],[[3695]],[[3696]],[[3697]],[[3698]],[[3699]],[[3700]],[[3701]]],"properties":{"dma_code":592,"dma_name":"Gainesville, FL","latitude":29.4733815,"longitude":-82.7290595}},{"type":"Polygon","arcs":[[-3576,-2342,3702,3703,-2339,3704,-3506,3705,3706,-2983,3707]],"properties":{"dma_code":661,"dma_name":"San Angelo, TX","latitude":31.1869405,"longitude":-100.740601}},{"type":"Polygon","arcs":[[3708,3709,-3296,3710,-2054,3711,-2133,3712,3713,-2138,3714,-2183,3715,-2181,3716,3717,3718,3719,3720]],"properties":{"dma_code":693,"dma_name":"Little Rock-Pine Bluff, AR","latitude":34.647081,"longitude":-92.670434}},{"type":"MultiPolygon","arcs":[[[-3681,3721,3722,3723,-3689,3724]],[[3725]]],"properties":{"dma_code":642,"dma_name":"Lafayette, LA","latitude":30.238058,"longitude":-92.1103105}},{"type":"MultiPolygon","arcs":[[[3726,3727,-3674,3728,3729,3730]],[[3731]],[[3732]],[[3733]],[[3734]],[[3735]],[[3736]],[[3737]],[[3738]],[[3739]],[[3740]],[[3741]],[[3742]],[[3743]],[[3744]],[[3745]],[[3746]],[[3747]],[[3748]],[[3749]]],"properties":{"dma_code":550,"dma_name":"Wilmington, NC","latitude":34.3480385,"longitude":-78.294559}},{"type":"Polygon","arcs":[[-3244,3750,-2526,3751,3752,3753,-2496,3754,3755,3756,3757]],"properties":{"dma_code":709,"dma_name":"Tyler-Longview(Lufkin & Nacogdoches), TX","latitude":32.1070105,"longitude":-94.8800795}},{"type":"Polygon","arcs":[[3758,3759,-3072,3760,3761,-3179,3762,-1975]],"properties":{"dma_code":581,"dma_name":"Terre Haute, IN","latitude":39.2814045,"longitude":-87.6902755}},{"type":"MultiPolygon","arcs":[[[3763,3764,3765,-3632,3766,-3485,3767,-2363,3768,3769]],[[3770]],[[3771]],[[3772]],[[3773]],[[3774]],[[3775]],[[3776]],[[3777]],[[3778]],[[3779]],[[3780]],[[3781]],[[3782]],[[3783]],[[3784]]],"properties":{"dma_code":507,"dma_name":"Savannah, GA","latitude":32.168191,"longitude":-81.632894}},{"type":"Polygon","arcs":[[3785,-3574,3786,3787,3788]],"properties":{"dma_code":749,"dma_name":"Laredo, TX","latitude":27.388155,"longitude":-99.5051385}},{"type":"MultiPolygon","arcs":[[[-3676,3789,-3727,3790,-3637,3791,3792,-2076,3793,-3502,3794,-3664],[-3677]],[[-2081]]],"properties":{"dma_code":570,"dma_name":"Myrtle Beach-Florence, SC","latitude":34.307086,"longitude":-79.4190465}},{"type":"Polygon","arcs":[[3795,-2145,3796,-2143,3797,-2141,3798,-2128,3799,-2068,3800,-2066,3801,-1917,3802,-1973,3803,-3558]],"properties":{"dma_code":632,"dma_name":"Paducah, KY-Cape Girardeau, MO-Harrisburg, IL","latitude":37.2363495,"longitude":-89.497325}},{"type":"Polygon","arcs":[[3804,-3618,3805,-2069,3806,3807,-3634,3808,-3765,3809,3810,3811]],"properties":{"dma_code":520,"dma_name":"Augusta, GA","latitude":33.238907,"longitude":-81.9064505}},{"type":"Polygon","arcs":[[-3644,3812,-2566,3813,3814,3815,-3646,3816]],"properties":{"dma_code":559,"dma_name":"Bluefield-Beckley-Oak Hill, WV","latitude":37.6001745,"longitude":-80.978172}},{"type":"Polygon","arcs":[[-3756,3817,-2866,3818,3819,-3709,3820,-3720,3821,3822,3823,3824,3825,3826,3827,3828]],"properties":{"dma_code":612,"dma_name":"Shreveport, LA","latitude":32.820852,"longitude":-94.0137}},{"type":"Polygon","arcs":[[-2537,3829,-2548,3830,-2368,3831,-2366,3832,-3482,3833,3834,3835]],"properties":{"dma_code":530,"dma_name":"Tallahassee, FL-Thomasville, GA","latitude":30.4627365,"longitude":-83.675645}},{"type":"Polygon","arcs":[[-2157,3836,3837,-3386,3838,-3279,3839,-2119,3840,3841,3842,3843,3844,-3815,3845,3846,-2160,3847,3848]],"properties":{"dma_code":564,"dma_name":"Charleston-Huntington, WV","latitude":38.376208,"longitude":-82.0415365}},{"type":"Polygon","arcs":[[3849,3850,3851,-3056,3852,-3811,3853,-3770,3854,-2361,3855,3856,3857],[3858]],"properties":{"dma_code":503,"dma_name":"Macon, GA","latitude":32.6219375,"longitude":-83.3195125}},{"type":"MultiPolygon","arcs":[[[3859,-3587,-3058,3860,3861,3862,-3857,3863,-2359,3864,-2545,3865]],[[-3859]]],"properties":{"dma_code":522,"dma_name":"Columbus, GA","latitude":32.2974525,"longitude":-84.833832}},{"type":"Polygon","arcs":[[-3827,3866,3867,3868,3869,3870,3871,-3723,3872]],"properties":{"dma_code":644,"dma_name":"Alexandria, LA","latitude":31.3226055,"longitude":-92.627813}},{"type":"MultiPolygon","arcs":[[[3873,-3672,3874,3875,-3730]],[[3876]],[[3877]],[[3878]],[[3879]],[[3880]],[[3881]],[[3882]],[[3883]],[[3884]],[[3885]],[[3886]],[[3887]],[[3888]],[[3889]],[[3890]],[[3891]],[[3892],[3893]],[[3894]],[[3895]],[[3896]],[[3897]],[[3898]],[[3899]],[[3900]]],"properties":{"dma_code":545,"dma_name":"Greenville-New Bern-Washington, NC","latitude":35.343696,"longitude":-76.9754245}},{"type":"Polygon","arcs":[[-3843,3901,3902,3903,-3601,3904,3905,3906,-3648,3907,3908]],"properties":{"dma_code":598,"dma_name":"Clarksburg-Weston, WV","latitude":38.934076,"longitude":-80.309074}},{"type":"Polygon","arcs":[[3909,-3566,3910,3911,-2170,3912,-2168,3913,3914,-2562,3915,-2560,3916,-2558,3917,-3611,3918,-3237,3919]],"properties":{"dma_code":557,"dma_name":"Knoxville, TN","latitude":36.112723,"longitude":-84.051862}},{"type":"Polygon","arcs":[[3920,-3685,3921,3922,3923,3924,3925,3926,3927,3928,3929,-2178,3930,3931,-2175,3932,3933,-1932]],"properties":{"dma_code":718,"dma_name":"Jackson, MS","latitude":32.1874215,"longitude":-90.485657}},{"type":"MultiPolygon","arcs":[[[-3788,3934,-3572,3935,3936],[3937]],[[3938]],[[3939]],[[3940]],[[3941]],[[3942]],[[3943]],[[3944]],[[3945]],[[3946]],[[3947]],[[3948]]],"properties":{"dma_code":600,"dma_name":"Corpus Christi, TX","latitude":27.692472,"longitude":-97.859354}},{"type":"Polygon","arcs":[[-3868,3949,-3825,3950,-3823,3951,-3718,3952,3953,3954,3955,-3927,3956,-3925,3957,-3923,3958,-3683,3959,-3870,3960]],"properties":{"dma_code":628,"dma_name":"Monroe, LA-El Dorado, AR","latitude":32.1842885,"longitude":-91.932164}},{"type":"Polygon","arcs":[[-3623,3961,-1934,3962,-3304,-2101,3963,3964,-3584,3965]],"properties":{"dma_code":711,"dma_name":"Meridian, MS","latitude":32.3468715,"longitude":-88.5817905}},{"type":"MultiPolygon","arcs":[[[-3789,-3937,3966]],[[3967]],[[3968]],[[3969]]],"properties":{"dma_code":636,"dma_name":"Harlingen-Weslaco-Brownsville-McAllen, TX","latitude":26.311536,"longitude":-98.158763}},{"type":"MultiPolygon","arcs":[[[-1105,3970,-1283,-1274,-1647,3971]],[[3972,-1107]],[[3973,-1109]],[[3974,-1111]],[[3975,-1113]],[[3976,-1115]],[[3977,-1117]],[[3978,-852,3979,-1119]],[[3980,-854]],[[3981,-856]],[[3982,-858]],[[3983,-860]],[[3984,-862]],[[3985,-864]],[[3986,-866]],[[3987,-868]],[[3988,-870]],[[3989,-872]],[[3990,-874]],[[3991,-876]],[[3992,-878]],[[3993,-880]],[[3994,-882]],[[3995,-884]],[[3996,-886]],[[3997,-888]],[[3998,-890]],[[3999,-892]],[[4000,-894]],[[4001,-896]],[[4002,-898]],[[4003,-900]],[[4004,-902]],[[4005,-904]],[[4006,-906]],[[4007,-908]],[[4008,-910]],[[4009,-912]],[[4010,-914]],[[4011,-916]],[[4012,-918]],[[4013,-920]],[[4014,-922]],[[4015,-924]],[[4016,-926]],[[4017,-928]],[[4018,-930]],[[4019,-932]],[[4020,-934]],[[4021,-936]],[[4022,-938]],[[4023,-940]],[[4024,-942]],[[4025,-944]],[[4026,-946]],[[4027,-948]],[[4028,-950]],[[4029,-952]],[[4030,-954]],[[4031,-956]],[[4032,-958]],[[4033,-960]],[[4034,-962]],[[4035,-964]],[[4036,-966]],[[4037,-968]],[[4038,-970]],[[4039,-736]],[[4040,-738]],[[4041,-740]],[[4042,-742]],[[4043,-744]],[[4044,-746]],[[4045,-748]],[[4046,-750]],[[4047,-752]],[[4048,-754]],[[4049,-756]],[[4050,-64,4051,-758]],[[4052,-760]],[[4053,-762]],[[4054,-764]],[[4055,-766]],[[4056,-768]],[[4057,-770]],[[4058,-772]],[[4059,-774]],[[4060,-776]],[[4061,-778]],[[4062,-780]],[[4063,-782]],[[4064,-784]],[[4065,-786]],[[4066,-788]],[[4067,-790]],[[4068,-792]],[[4069,-794]],[[4070,-796]],[[4071,-798]],[[4072,-800]],[[4073,-802]],[[4074,-804]],[[4075,-806]],[[4076,-808]],[[4077,-810]],[[4078,-812]],[[4079,-814]],[[4080,-816]],[[4081,-818]],[[4082,-820]],[[4083,-822]],[[4084,-824]],[[4085,-826]],[[4086,-828]],[[4087,-830]],[[4088,-832]],[[4089,-834]],[[4090,-836]],[[4091,-838]],[[4092,-840]],[[4093,-842]],[[4094,-844]],[[4095,-846]],[[4096,-848]],[[4097,-850]],[[4098,-1121]],[[4099,-1123]],[[4100,-1125]],[[4101,-1127]],[[4102,-1129]],[[4103,-1131]],[[4104,-1133]],[[4105,-1135]],[[4106,-1137]],[[4107,-1139]],[[4108,-1141]],[[4109,-1143]],[[4110,-1145]],[[4111,-1147]],[[4112,-1149]],[[4113,-1151]],[[4114,-1153]],[[4115,-1155]],[[4116,-1157]],[[4117,-1159]],[[4118,-1161]],[[4119,-1163]],[[4120,-1165]],[[4121,-1167]],[[4122,-1169]],[[4123,-1171]],[[4124,-1173]],[[4125,-1175]],[[4126,-1177]],[[4127,-1271,4128,-1179]],[[4129,-1181]],[[4130,-1183]],[[4131,-1185]],[[4132,-1187]],[[4133,-1189]],[[4134,-1191]],[[4135,-1193]],[[4136,-1195]],[[4137,-1197]],[[4138,-1199]],[[4139,-1201]],[[4140,-1203]],[[4141,-1205]],[[4142,-1207]],[[4143,-1209]],[[4144,-1211]],[[4145,-1213]],[[4146,-1215]],[[4147,-1217]],[[4148,-1219]],[[4149,-1221]],[[4150,-1223]],[[4151,-1225]],[[4152,-1227]],[[4153,-1229]],[[4154,-1231]],[[4155,-1233]],[[4156,-1235]],[[4157,-1237]],[[4158,-1239]],[[4159,-1241]],[[4160,-1243]],[[4161,-1245]],[[4162,-1247]],[[4163,-1249]],[[4164,-1251]],[[4165,-1253]],[[4166,-1255]],[[4167,-1257]],[[4168,-1259]],[[4169,-1261]],[[4170,-1263]],[[4171,-1265]],[[4172,-1267]],[[4173,-1269]],[[4174,-1648,4175,-1285]],[[4176,-1287]],[[4177,-1289]],[[4178,-1291]],[[4179,-1293]],[[4180,-1295]],[[4181,-1297]],[[4182,-1299]],[[4183,-1301]],[[4184,-1303]],[[4185,-1305]],[[4186,-1307]],[[4187,-1309]],[[4188,-1311]],[[4189,-1313]],[[4190,-1315]],[[4191,-1317]],[[4192,-1319]],[[4193,-1321]],[[4194,-1323]],[[4195,-1325]],[[4196,-1327]],[[4197,-1329]],[[4198,-1331]],[[4199,-1333]],[[4200,-1335]],[[4201,-1337]],[[4202,-1339]],[[4203,-1341]],[[4204,-1343]],[[4205,-1345]],[[4206,-1347]],[[4207,-1349]],[[4208,-1351]],[[4209,-1353]],[[4210,-1355]],[[4211,-1357]],[[4212,-1359]],[[4213,-1361]],[[4214,-1363]],[[4215,-1365]],[[4216,-1367]],[[4217,-1369]],[[4218,-1371]],[[4219,-1373]],[[4220,-1375]],[[4221,-1377]],[[4222,-1379]],[[4223,-1650,4224,-1381]],[[4225,-1383]],[[4226,-1385]],[[4227,-1387]],[[4228,-1652,4229,-1389]],[[4230,-1391]],[[4231,-1393]],[[4232,-1395]],[[4233,-1397]],[[4234,-1399]],[[4235,-1401]],[[4236,-1403]],[[4237,-1405]],[[4238,-1407]],[[4239,-1409]],[[4240,-1411]],[[4241,-1413]],[[4242,-1415]],[[4243,-1417]],[[4244,-1419]],[[4245,-1421]],[[4246,-1423]],[[4247,-1425]],[[4248,-1427]],[[4249,-1429]],[[4250,-1431]],[[4251,-1433]],[[4252,-1281,4253,-1435],[-1280]],[[4254,-1437]],[[4255,-1439]],[[4256,-1441]],[[4257,-1443]],[[4258,-1445]],[[4259,-1447]],[[4260,-1449]],[[4261,-1451]],[[4262,-1453]],[[4263,-1455]],[[4264,-1457]],[[4265,-1459]],[[4266,-1461]],[[4267,-1463]],[[4268,-1465]],[[4269,-1467]],[[4270,-1469]],[[4271,-1471]],[[4272,-1473]],[[4273,-1475]],[[4274,-1477]],[[4275,-1479]],[[4276,-1481]],[[4277,-1483]],[[4278,-1485]],[[4279,-1487]],[[4280,-1489]],[[4281,-1491]],[[4282,-1493]],[[4283,-1495]],[[4284,-1654,4285,-1497]],[[4286,-1499]],[[4287,-1501]],[[4288,-1503]],[[4289,-1505]],[[4290,-1507]],[[4291,-1509]],[[4292,-1511]],[[4293,-1513]],[[4294,-1515]],[[4295,-1517]],[[4296,-1519]],[[4297,-1521]],[[4298,-1523]],[[4299,-1525]],[[4300,-1527]],[[4301,-1529]],[[4302,-1531]],[[4303,-1533]],[[4304,-1535]],[[4305,-1537]],[[4306,-1539]],[[4307,-1541]],[[4308,-1543]],[[4309,-1545]],[[4310,-1547]],[[4311,-1549]],[[4312,-1551]],[[4313,-1553]],[[4314,-1555]],[[4315,-1557]],[[4316,-1559]],[[4317,-1561]],[[4318,-1563]],[[4319,-1565]],[[4320,-1567]],[[4321,-1569]],[[4322,-1571]],[[4323,-1573]],[[4324,-1575]],[[4325,-1577]],[[4326,-1579]],[[4327,-1581]],[[4328,-1583]],[[4329,-1585]],[[4330,-1587]],[[4331,-1589]],[[4332,-1591]],[[4333,-1593]],[[4334,-1595]],[[4335,-1597]],[[4336,-1599]],[[4337,-1601]],[[4338,-1603]],[[4339,-1605]],[[4340,-1607]],[[4341,-1609]],[[4342,-1611]],[[4343,-1613]],[[4344,-1279,4345,-1615]],[[4346,-1277]],[[4347,-1617]],[[4348,-1619]],[[4349,-1621]],[[4350,-1623]],[[4351,-1625]],[[4352,-1627]],[[4353,-1629]],[[4354,-1631],[-1275]],[[4355,-1633]],[[4356,-1635]],[[4357,-1637]],[[4358,-1639]],[[4359,-1641]],[[4360,-1643]],[[4361,-1645]],[[4362]],[[4363]],[[4364]],[[4365]],[[4366]],[[4367]],[[4368]],[[4369]],[[4370]],[[4371]],[[4372]],[[4373]],[[4374]],[[-706,4375]],[[4376,-708]],[[4377,-710]],[[4378,-712]],[[4379,-714]],[[4380,-716]],[[4381,-718]],[[4382,-720]],[[4383,-722]],[[4384,-724]],[[4385,-726]],[[4386,-728]],[[4387,-730]],[[4388,-732]],[[4389,-734]],[[4390,-620]],[[4391,-622]],[[4392,-624]],[[4393,-626]],[[4394,-628]],[[4395,-630]],[[4396,-632]],[[4397,-634]],[[4398,-636]],[[4399,-638]],[[4400,-640]],[[4401,-642]],[[4402,-644]],[[4403,-646]],[[4404,-648]],[[4405,-650]],[[4406,-652]],[[4407,-654]],[[4408,-656]],[[4409,-658]],[[4410,-660]],[[4411,-662]],[[4412,-664]],[[4413,-666]],[[4414,-668]],[[4415,-670]],[[4416,-672]],[[4417,-674]],[[4418,-676]],[[4419,-678]],[[4420,-1099,4421,-680]],[[4422,-682]],[[4423,-684]],[[4424,-686]],[[4425,-688]],[[4426,-690]],[[4427,-692]],[[4428,-694]],[[4429,-696]],[[4430,-698]],[[4431,-700]],[[4432,-702]],[[4433,-704]],[[4434,-1029]],[[4435,-1031]],[[4436,-589]],[[4437,-591]],[[4438,-593]],[[4439,-595]],[[4440,-597]],[[4441,-599]],[[4442,-601]],[[4443,-603]],[[4444,-605]],[[4445,-607]],[[4446,-609]],[[4447,-611]],[[4448,-134,4449,-613]],[[4450,-26,4451,-24,4452,-615]],[[4453,-617]],[[4454,-619]],[[4455,-541]],[[4456,-543]],[[4457,-545]],[[4458,-547]],[[4459,-549]],[[4460,-551]],[[4461,-553]],[[4462,-555]],[[4463,-557],[-1104]],[[4464,-559]],[[4465,-561]],[[4466,-563]],[[4467,-565]],[[4468,-567]],[[4469,-1102,4470,-569],[-1101]],[[4471,-571]],[[4472,-573]],[[4473,-575]],[[4474,-577]],[[4475,-1097,4476,-579]],[[4477,-581]],[[4478,-583]],[[4479,-585]],[[4480,-587]],[[4481]],[[-71,4482]],[[4483,-73]],[[4484,-75]],[[4485,-77]],[[4486,-79]],[[4487,-81]],[[4488,-83]],[[4489,-62,4490,-85]],[[4491,-87]],[[4492,-89]],[[4493,-91]],[[4494,-93]],[[4495,-95]],[[4496,-136,4497,-97]],[[4498,-99]],[[4499,-101]],[[4500,-103]],[[4501,-105]],[[4502,-107]],[[4503,-109]],[[4504,-111]],[[4505,-113]],[[4506,-115]],[[4507,-117]],[[4508,-119]],[[4509,-121]],[[4510,-123]],[[4511,-125]],[[4512,-127]],[[4513,-129]],[[4514,-131]],[[4515,-133]],[[4516,-67]],[[4517,-69]],[[4518,-34]],[[4519,-36]],[[4520,-38]],[[4521,-40]],[[4522,-42]],[[4523,-44]],[[4524,-46]],[[4525,-48]],[[4526,-50]],[[4527,-52]],[[4528,-54]],[[4529,-56]],[[4530,-58]],[[4531,-60]],[[4532,-28]],[[4533,-30]],[[4534,-32]],[[-498,4535]],[[4536,-500]],[[4537,-502]],[[4538,-504]],[[4539,-506]],[[4540,-508]],[[4541,-510]],[[4542,-512]],[[4543,-514]],[[4544,-516]],[[4545,-518]],[[4546,-520]],[[4547,-522]],[[4548,-524]],[[4549,-526]],[[4550,-488]],[[4551,-490]],[[4552,-492]],[[4553,-494]],[[4554,-496]],[[-440,4555]],[[4556,-442]],[[4557,-444]],[[4558,-446]],[[4559,-448]],[[4560,-450]],[[4561,-452]],[[4562,-454]],[[4563,-456]],[[4564,-458]],[[4565,-460]],[[4566,-462]],[[4567,-464]],[[4568,-466]],[[4569,-468]],[[4570,-470]],[[4571,-472]],[[4572,-474]],[[4573,-476]],[[4574,-478]],[[4575,-480]],[[4576,-482]],[[4577,-484]],[[4578,-486]],[[4579,-386]],[[4580,-388]],[[4581,-390]],[[4582,-392]],[[4583,-394]],[[4584,-396]],[[4585,-398]],[[4586,-400]],[[4587,-402]],[[4588,-404]],[[4589,-406]],[[4590,-408]],[[4591,-410]],[[4592,-412]],[[4593,-414]],[[4594,-416]],[[4595,-418]],[[4596,-420]],[[4597,-422]],[[4598,-424]],[[4599,-426]],[[4600,-428]],[[4601,-430]],[[4602,-432]],[[4603,-434]],[[4604,-436]],[[4605,-438]],[[-528,4606]],[[4607,-530]],[[4608,-532]],[[4609,-534]],[[4610,-536]],[[4611,-538]],[[-986,4612]],[[4613,4613,4613]],[[4614,-989]],[[4615,-972,4616,-974]],[[4617,-976]],[[4618,-978]],[[4619,-980]],[[4620,-982]],[[4621,-984]],[[-374,4622]],[[4623,-376]],[[4624,-378]],[[4625,-380]],[[4626,-382]],[[4627,-384]],[[4628,-372]],[[4629,-232]],[[4630,-234]],[[4631,-236]],[[4632,-238]],[[4633,-240]],[[4634,-242]],[[4635,-244]],[[4636,-246]],[[4637,-248]],[[4638,-250]],[[4639,-252]],[[4640,-254]],[[4641,-256]],[[4642,-258]],[[4643,-141,4644,-260]],[[4645,-262]],[[4646,-264]],[[4647,-266]],[[4648,-268]],[[4649,-270]],[[4650,-272]],[[4651,-274]],[[4652,-276]],[[4653,-278]],[[4654,-280]],[[4655,-282]],[[4656,-284]],[[4657,-286]],[[4658,-288]],[[4659,4659,4659]],[[4660,-291]],[[4661,-293]],[[4662,-295]],[[4663,-297]],[[4664,-299]],[[4665,-301]],[[4666,-303]],[[4667,-305]],[[4668,-307]],[[4669,-309]],[[4670,-311]],[[4671,-313]],[[4672,-315]],[[4673,-317]],[[4674,-170]],[[4675,-172]],[[4676,-174]],[[4677,-371,4678,-176]],[[4679,-367,4680,-178]],[[4681,-180]],[[4682,-182]],[[4683,-184]],[[4684,-186]],[[4685,-188]],[[4686,-190]],[[4687,-192]],[[4688,-194]],[[4689,-196]],[[4690,-198]],[[4691,-200]],[[4692,-202]],[[4693,-204]],[[4694,-206]],[[4695,-208]],[[4696,-210]],[[4697,-212]],[[4698,-214]],[[4699,-216]],[[4700,-218]],[[4701,-220]],[[4702,-222]],[[4703,-224]],[[4704,-226]],[[4705,-228]],[[4706,-230]],[[-1021,4707]],[[4708,-1023]],[[4709,-1025]],[[4710,-1027]],[[4711,-991]],[[4712,-993]],[[4713,-995]],[[4714,-997]],[[4715,-999]],[[4716,-1001]],[[4717,-1003]],[[4718,-1005]],[[4719,-1007]],[[4720,-1009]],[[4721,-1011],[-369]],[[4722,-1013]],[[4723,-1015]],[[4724,-1017]],[[4725,-1019]],[[4726,-166]],[[4727,-168]],[[4728,-160]],[[4729,-162]],[[4730,-164]],[[-1067,4731]],[[4732,-1069]],[[4733,-1071]],[[4734,-1073]],[[4735,-1075]],[[4736,-1077]],[[4737,-1079]],[[4738,-1081]],[[4739,-1033]],[[4740,-1035]],[[4741,-1037]],[[4742,-1039]],[[4743,-1041]],[[4744,-1043]],[[4745,-1045]],[[4746,-1047]],[[4747,-1049]],[[4748,-1051]],[[4749,-1053]],[[4750,-1055]],[[4751,-139,4752,-1057]],[[4753,-1059]],[[4754,-1061]],[[4755,-1063]],[[4756,-1065]],[[4757,-1083]],[[4758,-1085]],[[4759,-1087]],[[4760,-1089]],[[4761,-1091]],[[4762,-1093]],[[4763,-1095]],[[-146,4764]],[[4765,-148]],[[4766,-150]],[[4767,-152]],[[4768,-154]],[[4769,-156]],[[4770,-158]],[[4771,-142]],[[4772,-144]],[[-319,4773]],[[4774,-321]],[[4775,-323]],[[4776,-325]],[[4777,-22,4778,-327]],[[4779,-329]],[[4780,-331]],[[4781,-333]],[[4782,-335]],[[4783,-337]],[[4784,-339]],[[4785,-341]],[[4786,-343]],[[4787,-345]],[[4788,-347]],[[4789,-349]],[[4790,-351]],[[4791,-353]],[[4792,-355]],[[356,-357,4793]],[[4794,-359]],[[4795,-361]],[[4796,-363]],[[4797,-365]]],"properties":{"dma_code":-1,"dma_name":"Alaska","latitude":null,"longitude":null}}]}},"arcs":[[[449479,762042],[-2235,2630],[-1477,14453]],[[445767,779125],[-3895,1014],[1451,16567]],[[443323,796706],[2400,-2150],[-318,-3945],[832,-1062],[3622,4106],[2613,-5229],[2896,-588],[214,2697],[2354,-535],[172,2637],[1622,-364],[212,2702],[3150,-713],[218,2714],[18297,-3924]],[[481607,793052],[196,7029],[-2240,5571]],[[479563,805652],[17664,-3206]],[[497227,802446],[-2168,-32747]],[[495059,769699],[14765,-2335]],[[509824,767364],[-1434,-27571],[-5279,759],[-256,-5426],[-1508,-4178],[-3175,989],[1010,3785],[-26337,5082]],[[472845,740804],[-382,-5346]],[[472463,735458],[-20374,4543],[698,13349]],[[452787,753350],[-993,1775],[-2315,6917]],[[351518,535241],[-28939,75267]],[[322579,610508],[4210,32024],[-10471,34028],[346,2487],[12579,290]],[[329243,679337],[19629,-7456]],[[348872,671881],[10743,-19508],[13255,-4496]],[[372870,647877],[-8617,-77911]],[[364253,569966],[-2144,-4848],[-1363,246]],[[360746,565364],[-1830,4877]],[[358916,570241],[-5267,-157],[576,-7246]],[[354225,562838],[-965,-1844],[-625,-9798],[465,-10547],[-1425,-2186]],[[351675,538463],[-157,-3222]],[[343461,67926],[-1,0],[0,2]],[[343460,67928],[1,-2]],[[313106,112396],[8,-9],[2,-4]],[[313116,112383],[-10,13]],[[313145,112342],[8,-3],[16,-30]],[[313169,112309],[-24,33]],[[313928,108911],[6,10],[-1,86],[-19,55],[-23,56],[-13,18]],[[313878,109136],[-87,388]],[[313791,109524],[21,36],[-4,50],[-12,31],[-39,38]],[[313757,109679],[-4,19]],[[313753,109698],[6,26],[23,9],[-5,43],[-25,56],[-12,77],[-27,45],[-5,44],[19,6],[29,-50],[16,17],[16,70],[5,77],[-11,84],[-19,55],[-49,0],[-23,59],[-35,10],[-28,17],[-15,28]],[[313613,110371],[968,496],[1201,-1377]],[[315782,109490],[6,-24],[5,-38],[5,-34],[-1,-10]],[[315797,109384],[-122,-47]],[[315675,109337],[-25,-4],[-4,-7]],[[315646,109326],[-82,-31]],[[315564,109295],[-7,6],[-45,33],[-25,25],[-32,-11],[-54,93],[-24,53],[-42,34],[-46,-1],[-57,2],[-33,23],[-24,12],[-9,33],[-29,3],[-22,-26],[15,-48],[5,-56],[27,-48],[62,-68],[62,-70],[62,-33],[42,-33]],[[315390,109218],[19,-43]],[[315409,109175],[7,-35],[20,-107],[19,-68],[10,-72],[27,-61],[53,-84],[24,-87],[40,-29],[49,-20]],[[315658,108612],[2,-5]],[[315660,108607],[17,-67],[-5,-96],[14,-57],[0,-62],[3,-110],[-22,-67],[-32,-26],[-8,-56],[7,-56],[22,-10],[25,25],[48,-7],[25,-70],[11,-91],[3,-54],[18,-15],[34,17],[11,-38],[29,-56],[31,65],[10,92],[13,56],[-40,72],[-9,45],[27,43]],[[315892,108084],[165,-375]],[[316057,107709],[8,-64],[35,-33]],[[316100,107612],[5,-10]],[[316105,107602],[6,-42],[-4,-49],[9,-66],[-6,-50],[27,-39],[23,-56],[5,-54],[-24,-21],[-15,-73],[-7,-75],[5,-65],[21,-55],[15,-7],[5,-51],[-17,-27],[12,-31],[16,-26],[-15,-45],[-12,-74],[18,-72],[25,-61],[6,-78],[24,-65],[12,-56],[5,-14]],[[316239,106350],[-7,-186]],[[316232,106164],[-1,-7],[-45,-100],[-47,-117],[-13,-57],[2,-58],[-6,-59],[-12,-96],[11,-75],[15,-73],[23,-23],[-13,-50],[15,-51],[-7,-31],[-17,-31],[6,-50],[43,-53],[4,-25],[-4,-30],[7,-28]],[[316193,105150],[-1,-30]],[[316192,105120],[-8,-15],[-31,-25],[-10,-27],[15,-26],[-18,-38],[-16,-8],[-28,-64],[-21,-78],[-5,-75],[9,-38],[19,-44],[-18,-25],[-12,-34],[-14,-78],[9,-76],[18,-38],[26,-43],[13,-40],[-11,-30],[-14,-51],[-21,-7],[-38,8],[-57,9],[-42,25],[-43,-12],[-29,-22],[-33,-10],[-43,-32],[-23,-8],[-13,-31],[-9,-36],[-41,-30],[-27,-57],[-37,-63],[9,-35],[-26,-32],[-32,-51],[-8,-32],[-36,-24],[-48,-34],[-35,-33],[-30,16],[-29,-3],[-15,-29],[-16,-30],[-30,-18],[-32,-10],[-31,9],[-16,-20],[-21,-23],[-5,-46],[-18,-50],[-18,-47],[-23,-23],[-44,-26],[-42,-27],[-17,-15],[-8,-48],[-21,-10],[-24,3],[-29,-5],[-29,-24],[-14,-41],[-19,-81],[-10,-27],[-25,-25],[-34,-2],[-16,33],[-28,14],[-23,-18]],[[314796,103187],[-228,2062],[169,717]],[[314737,105966],[9,8],[38,10],[21,35],[38,28],[14,57],[30,46],[14,113],[0,139],[-9,135],[-10,48]],[[314882,106585],[187,792],[-266,-40]],[[314803,107337],[-23,23],[-20,8],[-31,34],[-50,-10],[-34,-23],[-2,-44],[-5,-13]],[[314638,107312],[-18,-3]],[[314620,107309],[-1,1],[-6,40],[-32,27],[-38,36],[-28,14],[-16,-8],[1,-52],[-7,-41],[-8,-37]],[[314485,107289],[-188,-29],[-104,467]],[[314193,107727],[-1,38],[-11,18]],[[314181,107783],[-10,45]],[[314171,107828],[10,40],[9,63],[2,57],[-29,38],[-4,26],[9,47],[-9,42],[-8,55],[-18,37],[-16,88],[12,46],[0,77],[7,56],[9,30],[22,1],[6,28],[6,28],[1,59],[15,33],[5,27],[-11,37],[-21,-1],[-14,-44],[-2,39],[5,55],[8,35],[-23,16],[0,46],[4,37],[-9,38],[-30,35],[-21,-14],[4,-60],[-3,-60],[-31,24],[-21,-32],[-5,-30],[-19,-10],[-15,-38],[-11,-42],[-3,-66]],[[313982,108671],[-54,240]],[[316159,109629],[19,64],[22,-5],[20,31],[10,73],[12,37],[-5,41],[1,54],[20,51],[12,39],[4,56],[16,47],[4,70],[15,1],[20,0],[14,-30],[28,10],[58,8],[50,-5],[12,-19],[19,-30],[26,-8],[8,-12],[13,5],[6,22],[13,34],[20,32],[14,15],[27,17],[18,-13],[14,-12],[16,8],[18,40],[25,52],[16,25],[16,8],[46,-16],[29,-11],[16,-15],[15,14],[2,16],[28,6],[23,-4],[6,-23]],[[316925,110302],[-766,-673]],[[329451,116717],[10,-19],[19,-77],[15,-42],[24,-39],[7,-39],[5,-48],[-4,-46],[-12,-28],[-13,5],[-25,42],[-17,9],[-24,27]],[[329436,116462],[15,255]],[[325486,91252],[94,-646]],[[325580,90606],[-6,-34],[6,-61],[18,-44],[3,-4]],[[325601,90463],[17,-118]],[[325618,90345],[-12,-30],[-5,-63],[11,-71],[5,-67],[-21,-81],[13,-54],[20,-44],[21,-39],[23,-45],[20,-26]],[[325693,89825],[5,-30]],[[325698,89795],[0,-39],[3,-82],[-4,-75],[12,-51],[2,-50],[-4,-43],[9,-139],[-7,-45],[16,-59],[-17,-47],[1,-16]],[[325709,89149],[-262,433]],[[325447,89582],[14,67],[-10,71],[-4,46],[-13,47],[-28,4],[-34,1],[-19,60],[-12,32],[-20,27],[-31,35],[-26,-11],[-1,85],[39,155],[12,124],[-4,49],[-25,-10],[-23,-3],[-18,6],[-9,-24],[-2,-39],[-4,-72],[-27,-18],[-21,-36],[-31,-39],[-11,-45]],[[325139,90094],[-3201,5301]],[[321938,95395],[-6,37],[-47,70],[-26,65],[-20,-8]],[[321839,95559],[-43,70],[777,4198],[-576,-1771],[-118,1992],[-319,-2],[-484,-3104],[-288,1441],[550,2496],[-939,-2274]],[[320399,98605],[-12,-15],[0,-14]],[[320387,98576],[-82,-199],[-87,3625],[-823,-1492],[-878,741],[333,1589],[-689,1427],[228,491]],[[318389,104758],[15,9],[-4,17]],[[318400,104784],[590,1270]],[[318990,106054],[20,-17],[41,-15],[43,-31],[37,-34],[25,-8],[18,-25],[27,-24],[73,25],[26,21],[19,13],[22,51],[10,20],[0,24],[-10,8],[-6,5],[-18,-1],[-29,-3],[-30,9],[-23,2],[-15,28],[-16,20],[-13,26],[-27,4],[-26,18],[-17,42],[-29,32],[-14,0]],[[319078,106244],[93,200],[-1509,311],[-219,1277],[595,930],[-557,-500]],[[317481,108462],[27,85],[29,65],[38,82],[48,55],[43,47],[40,6],[45,13],[49,-8],[42,0],[40,24],[32,32],[16,39],[-4,26],[-5,38],[-14,64],[-1,40],[-1,49],[-53,19],[-33,1],[-58,-2],[-37,-7],[-40,-42],[-66,-56],[-39,14],[-41,0],[-43,31],[-13,70],[-32,18],[-20,-7],[-6,-37],[-14,-32],[-1,-54],[38,-23],[28,-70],[10,-69],[-22,-61],[-25,-22],[-26,-32],[1,-74],[-22,-30],[-27,-70],[-33,-73],[-24,-24],[6,-44],[14,-58],[4,-35],[-37,-25],[-26,-48],[0,-5]],[[317268,108272],[-129,-116],[105,2427],[-31,-28]],[[317213,110555],[-18,23],[-8,37],[-46,19],[-18,28],[-27,-2],[-16,-30],[5,-31],[-10,-74],[-21,-1],[-36,12],[-24,-3],[-30,-15],[-31,-32],[-36,-12],[-44,-33],[-50,-3],[-48,-7],[-29,4],[-34,-33],[-23,-37],[1,-39],[-16,-40],[-22,-11],[-37,-25],[-32,-17],[-32,-26],[-32,15],[-23,28],[-33,5],[-18,22],[-47,6],[-29,10],[-30,28],[-21,8],[-11,-24],[6,-47],[-23,-18],[-41,-24],[-19,-31],[-28,-6],[-19,19],[-22,-43],[-10,-38],[0,-44],[-10,-30],[-4,-42],[-16,-27],[-31,-44],[-17,-67],[-17,-12],[-16,4],[-16,-48],[-5,-43],[3,-35],[-8,-20],[-24,-6],[-24,-31],[-29,-24]],[[315917,109648],[-363,571]],[[315554,110219],[-9,24],[-14,11]],[[315531,110254],[-66,104]],[[315465,110358],[-23,48],[-15,11]],[[315427,110417],[-80,126]],[[315347,110543],[-9,32],[-3,61],[43,-9],[30,-22],[53,-4],[28,46],[57,72],[-13,49],[-19,15],[-33,4],[-27,-16],[-33,23],[-45,17],[-33,23],[-41,20],[-39,-11],[-51,42],[-51,38],[-22,42],[-35,25],[-34,-5],[-12,11]],[[315058,110996],[-38,60]],[[315020,111056],[-9,47],[-9,67],[-9,35],[-38,-1],[-15,45],[-31,12],[-24,8]],[[314885,111269],[-222,347],[1338,791],[-121,51]],[[315880,112458],[-14,66],[2,75],[7,60],[-7,48],[-19,9],[-38,-7],[-21,-39],[-25,-16],[-36,13],[-59,3],[-42,25],[-53,53],[-21,-8],[-38,-19],[-30,15],[-64,20],[-21,-23],[-25,-4],[-30,16],[-50,2],[-50,2],[-9,41],[-47,16],[-19,43],[-39,20],[-51,-13],[-30,-16],[-34,5],[-25,-16]],[[314992,112829],[-54,22],[392,1257],[-181,1623],[1225,1237]],[[316374,116968],[3,-7],[25,-79],[34,-84],[21,-57],[18,-37],[37,-29],[19,-36],[40,-11],[42,-39],[18,-21],[4,-72],[1,-107],[-13,-56],[-13,-65],[-25,-44],[-20,-57],[11,-68],[-20,-35],[-30,-40],[-23,-15],[-40,-36],[-21,-42],[-44,-68],[-43,-81],[-76,-89],[-42,-68],[-55,-145],[2,-45],[-23,-64],[-26,-57],[-52,-85],[-20,-53],[-8,-57],[-18,-40],[-28,-24],[-31,-55],[-3,-54],[28,-121],[45,-100],[61,-104],[23,-13],[56,1],[14,17],[1,30]],[[316203,114656],[1251,1506]],[[317454,116162],[16,-34],[14,-88],[27,-44],[42,-11]],[[317553,115985],[-9,-368]],[[317544,115617],[-48,-42],[-8,-69],[-37,-47],[-22,-39],[-12,-84],[-9,-134],[-6,-79],[60,6],[20,81],[23,80],[27,2],[3,5]],[[317535,115297],[-8,-321],[1405,136],[852,-1154]],[[319784,113958],[9,-17],[5,-45]],[[319798,113896],[-112,-6]],[[319686,113890],[-4,5],[-58,71],[-42,34],[-30,-19],[-10,44],[-27,4],[-27,23],[-31,-23],[-32,-16],[-25,8],[-25,-13],[-23,-31],[-37,-32],[-42,-22],[-44,-23],[-17,-38]],[[319212,113862],[-52,-3],[38,-26]],[[319198,113833],[-19,-43],[-7,-47],[-34,-18],[-20,-26],[-1,-35],[20,-11],[57,-13],[32,-2],[34,55],[36,32],[21,25]],[[319317,113750],[236,-163]],[[319553,113587],[0,-5],[-12,-52],[-4,-49],[-18,-31],[5,-41],[-20,-29],[-20,5],[-34,-12],[-15,-45],[-1,-50],[78,-45],[11,3]],[[319523,113236],[-83,-387],[374,-163]],[[319814,112686],[0,-12],[-1,-71],[-22,-18],[-19,-35],[10,-35],[12,-53],[54,-46],[53,-40],[17,-62],[22,-31],[26,29],[33,-20],[27,12],[23,58],[8,60],[-18,53],[-36,33],[21,49],[30,16],[3,6]],[[320057,112579],[502,-220]],[[320559,112359],[8,-32],[-5,-36],[-10,-102],[30,-37],[28,-56],[8,-39],[-6,-37],[10,-82],[2,-73],[21,-66],[24,-31],[-28,-49],[-45,-18],[-40,25],[-45,22],[-18,-9],[-18,-37],[40,-63],[4,-88],[10,-72],[44,29],[38,-63],[34,-31],[38,-21],[27,-57],[15,-48],[44,24],[22,-32],[-5,-80],[12,-56],[40,12],[37,14],[21,-85],[13,-59],[-9,-45],[11,-40],[29,15],[7,63],[40,-1],[20,-104],[37,-98],[15,-27],[44,-76],[12,-65],[28,-39]],[[321143,110609],[9,-27]],[[321152,110582],[-10,-62],[-24,-32],[-51,-36],[-29,-37],[-20,-55],[57,-44],[29,-78],[6,-68],[17,-53],[63,-47],[8,57],[12,72],[34,-16],[24,-72],[19,-95],[-2,-67],[-40,-62],[-26,-44],[6,-53],[40,8],[23,-43],[48,10],[37,-46],[4,-69],[19,-71],[26,-39],[-15,-58],[11,-47],[45,-19],[27,-110],[15,-61],[28,-51],[17,-74],[-17,-41],[-40,1],[-23,-40],[4,-33],[21,-44],[25,-6],[4,-76],[33,-85],[28,31],[15,-8],[40,12],[17,-50],[21,-45],[40,-63],[29,-71],[11,-57],[3,-60],[10,-60],[27,-48],[14,-49],[38,-45],[17,-88],[-9,-92],[-21,-86],[34,-16],[43,23],[21,-54],[26,-92],[-5,-65],[-8,-36],[-39,-34],[-45,-14],[-24,0],[13,-49],[40,-54],[32,-14],[48,44],[32,11],[28,-25],[14,-55],[-4,-65],[-17,-47],[-6,-37],[39,-4],[29,-28],[15,-58],[38,-33],[2,-52],[16,-56],[-4,-62],[12,-37],[-7,-54],[15,-58],[26,-23],[9,-49],[6,-62],[1,-74],[-29,-69],[-19,-41],[14,-46],[-14,-29],[-43,-23],[-8,-36],[15,-70],[44,-33],[51,-6],[17,58],[43,36],[2,-68],[15,-45],[31,-43],[4,-76],[-13,-69],[-7,-73],[20,-48],[23,-54],[42,7],[28,40],[18,-34],[11,-53],[29,-60],[18,-53],[2,-65],[12,-53],[34,-66],[19,-55],[12,-50],[16,-54],[-16,-21],[-27,4],[-24,-31],[-41,-7],[-46,-3],[-21,11],[-19,2],[-15,-26],[16,-33],[23,-12],[34,-41],[42,-22],[22,-45],[38,-13],[40,-1],[34,18],[17,-16],[49,14],[20,-67],[18,-72],[44,-29],[30,-50],[16,-86],[0,-53],[9,-45],[19,-59],[-10,-39],[0,-73],[9,-39],[23,-44],[-15,-27],[-25,-16],[13,-87],[13,-81],[40,-51],[22,-50],[-4,-37],[-20,-48],[30,-63],[23,-59],[8,-56],[2,-64],[9,-52],[-4,-65],[-13,-57],[10,-60],[13,-15],[25,-78],[26,2],[34,68],[11,-41],[14,-68],[0,-47],[2,-34],[24,-28],[36,20],[48,-53],[35,-56],[29,-28],[11,-83],[-5,-68],[1,-44],[9,-38],[38,14],[35,-19],[19,-65],[17,-101],[-2,-48],[-8,-80],[4,-51],[40,9],[39,-48],[-4,-49],[20,-65],[18,-85],[2,-55],[4,-64],[-33,-18],[-47,-22],[-21,-15],[20,-114],[54,-18],[62,-33],[58,-13],[-7,-47],[9,-43],[22,-26],[24,-31],[-2,-58],[2,-45],[13,-13],[21,40],[26,-20],[4,-52],[-15,-36],[9,-52],[15,-30],[44,-13],[37,-56],[2,-74],[-4,-66],[-1,-47],[18,-16],[40,3],[25,-46],[23,-54],[4,-64],[19,-81],[23,-85],[-5,-34],[-29,-47],[4,-26],[18,-25],[40,5],[15,-70],[30,-56],[5,-67],[-26,-49],[-10,-40],[6,-38],[33,-39],[9,-67],[14,-71],[28,-39],[14,-74],[18,-69],[13,-46],[-22,-47],[-2,-39],[21,-33],[32,-14],[18,-34],[2,0]],[[324182,100244],[31,-214]],[[324213,100030],[-6,-18],[-7,-35],[-25,-45],[27,-48],[21,-2],[16,-33]],[[324239,99849],[73,-500]],[[324312,99349],[-25,-25],[-3,-33],[14,-21],[26,-4]],[[324324,99266],[24,-169]],[[324348,99097],[-2,-3],[-22,-24],[15,-37],[20,-14]],[[324359,99019],[72,-492]],[[324431,98527],[-6,-16],[7,-46],[10,-16]],[[324442,98449],[12,-84]],[[324454,98365],[-1,-12],[12,-70],[6,-72],[7,-94],[15,-74],[12,-85],[16,-55],[2,-9]],[[324523,97894],[46,-317]],[[324569,97577],[0,-21],[-14,-58],[-4,-56],[3,-49],[-4,-33],[-24,12],[-20,55],[-39,24],[-27,67],[-13,78],[-15,53],[-42,138],[-16,77],[-9,64],[-27,84],[-20,37],[-28,107],[-25,75],[-19,63],[-24,25],[-36,-13],[2,-65],[29,-67],[5,-66],[10,-55],[11,-29],[2,-75],[-2,-89],[-8,-68],[9,-58],[16,-61],[28,-51],[18,-76],[0,-47],[12,-67],[-2,-64],[19,-43],[12,-57],[-22,-6],[-28,17],[-29,-6],[-18,-16],[0,-54],[27,-36],[45,-48],[23,-29],[29,-10],[26,-8],[18,-60],[-12,-44],[5,-42],[52,-79],[28,-77],[42,-91],[16,-45],[20,-94],[-13,-32],[-26,-46],[3,-55],[28,-23],[37,-2],[1,-35],[-23,-28],[12,-56],[41,-30],[47,-28],[37,-53],[21,-64],[27,-56],[26,-49],[13,-56],[13,-79],[-17,-81],[16,-84],[17,-67],[-2,-45],[-10,-24],[14,-75],[12,-38],[4,-45],[28,-59],[36,-173],[-16,-31],[-25,-105],[-42,-121],[46,-29],[56,-11],[19,-47],[-13,-39],[-16,-40],[20,-37],[49,-9],[21,-16]],[[324990,94672],[79,-544]],[[325069,94128],[-6,-42],[16,-28]],[[325079,94058],[127,-876]],[[325206,93182],[-6,-16],[0,-95],[-3,-56],[-20,-17],[-26,-106],[-37,-55],[-26,-97],[-26,-36],[-17,-60],[-20,-77],[-23,-64],[-26,-90],[-27,-71],[-34,-41],[-19,-54],[-9,-43],[28,-74],[34,21],[40,113],[37,49],[40,89],[34,56],[45,56],[54,67],[22,62],[33,53],[20,17]],[[325274,92713],[118,-812]],[[325392,91901],[-9,-102],[-15,-68],[-16,-50],[-1,0],[-16,-60],[-34,-28],[-2,-1],[-30,-54],[-25,-62],[-8,-45],[20,-37],[36,4],[20,-12],[-13,-39],[-17,-47],[9,-43],[23,-29],[-4,-31],[7,-66],[26,-15],[10,-49],[-14,-36],[13,-76],[42,-38],[9,48],[4,20],[2,62],[41,63],[6,73],[25,58],[5,11]],[[314491,111929],[6,20],[10,45],[-4,50],[-12,49],[10,61],[43,-3],[7,-7]],[[314551,112144],[-49,-216],[-11,1]],[[316202,114736],[-2,43],[-9,54],[-25,125],[7,87],[21,72],[59,-6],[56,75],[25,49],[15,95],[4,94],[20,140],[37,22],[57,82],[9,-2]],[[316476,115666],[-274,-930]],[[352447,84992],[1,-40]],[[352448,84952],[-3,-2],[-32,32],[-60,33],[-28,23],[-19,46],[9,11],[41,51],[12,54],[22,-24],[8,-18],[6,-27],[-4,-31],[20,-85],[27,-23]],[[347994,74884],[15,-47]],[[348009,74837],[-7,-6],[-21,-10],[-19,17],[12,25],[19,14],[1,7]],[[351234,77671],[14,76],[-16,90],[-14,64],[-28,22]],[[351190,77923],[-37,205],[250,468]],[[351403,78596],[10,-17],[28,18],[8,57],[-5,20]],[[351444,78674],[140,262],[-987,2392],[838,152]],[[351435,81480],[15,-14],[47,-50],[15,-47],[-30,-28],[46,-51],[61,-48],[65,-18],[56,-24],[24,58],[37,27],[52,-10],[25,12]],[[351848,81287],[330,-175]],[[352178,81112],[50,-104],[60,-88],[38,-28]],[[352326,80892],[458,-1909]],[[352784,78983],[-2,-2],[-16,-33],[-22,-41],[-9,-36],[4,-70],[15,-54],[16,-36],[42,-4],[42,-20]],[[352854,78687],[232,-968]],[[353086,77719],[-14,-132],[-22,-37],[-3,-37]],[[353047,77513],[-418,-781]],[[352629,76732],[-7,-4],[-31,-20],[-52,-2],[-26,-3],[-27,-14],[-15,-36],[-30,-19],[-17,-44],[-47,-37],[-39,-25],[-7,-1]],[[352331,76527],[-370,780]],[[351961,77307],[-16,45],[-23,59],[-26,32]],[[351896,77443],[-283,595],[177,-590]],[[351790,77448],[-23,-29],[-8,-55],[-21,-63],[18,-65],[29,-35],[15,-64],[22,-69],[23,-39],[13,-68],[28,-29],[-7,-78],[-20,-86],[-22,-67],[12,-62],[-8,-55],[-39,-8],[-15,-59],[-4,-53],[-25,-33],[-15,-56],[-32,0],[-30,-45],[-26,-70],[-16,-70],[-7,-77],[-5,-87],[-7,-91],[-6,-34],[-16,-87],[-20,-76]],[[351578,75738],[-344,1933]],[[333484,91120],[13,-9],[36,-18],[23,29],[-8,59]],[[333548,91181],[163,155]],[[333711,91336],[19,-24],[34,41],[33,-26],[21,64],[32,-8],[42,-43],[28,-7],[51,36],[23,58],[34,13],[9,69],[-13,54],[-16,55]],[[334008,91618],[103,98],[-1082,466],[221,123]],[[333250,92305],[44,-3],[9,32]],[[333303,92334],[2002,1107],[314,-3093],[-1178,5]],[[334441,90353],[-28,77],[-29,35],[-49,-18],[2,-102],[-15,-125],[-5,-128],[-15,-86],[-19,-46],[3,-47],[-24,-75],[-19,-104],[1,-85],[-9,-82],[0,-42],[-29,-88],[-26,-66],[-20,-92],[5,-78],[-21,-24],[-26,-44],[-23,-40],[-22,-60],[-17,-55],[-40,-10],[-31,-15],[-25,-14],[-3,-60],[-33,-57],[-2,-7],[-5,-30],[-1,-3],[-41,-32],[-1,-1],[-2,-1],[-29,-53],[-2,-4],[-12,-62],[-1,-80],[10,-146],[5,-62],[2,-67],[-18,-20],[-5,-5],[-12,-42],[-2,-9],[13,-76],[8,-44],[-13,-27],[-5,-87],[0,-6],[-9,-153],[-29,-52],[-34,-16],[-1,0],[-25,-38],[-2,-14],[-1,-19],[11,-52],[-10,-48],[6,-42],[0,-35],[1,-12],[-28,-6],[-27,-14],[-21,-10],[-13,2],[-37,8],[-31,-21],[0,-1],[-18,-58],[-6,-9],[-5,-8]],[[333532,87360],[-670,-357]],[[332862,87003],[-9,16],[-31,60],[-23,45],[-20,-30],[-25,-47],[-30,-36],[-16,-7],[-6,-2],[-15,-9],[-7,-39],[4,-33],[1,-12]],[[332685,86909],[-24,-13],[195,3627],[628,597]],[[333189,97296],[25,-13],[49,-35],[28,-16],[23,16],[18,42],[42,44],[30,-21],[29,-44],[49,8],[21,60],[31,-17],[38,-3],[30,-9],[34,10],[-1,47],[-17,35],[13,34]],[[333631,97434],[634,198],[295,-1218],[609,1836],[354,-417]],[[335523,97833],[4,-25],[14,4]],[[335541,97812],[49,-58]],[[335590,97754],[1,-5],[9,-7]],[[335600,97742],[24,-28]],[[335624,97714],[13,-36],[24,-53],[17,-38],[6,-27],[-8,-25],[-11,-10],[1,-23],[-4,-28],[1,-45],[12,-46],[10,-32],[13,-22],[9,18],[3,54],[26,13],[24,32],[18,-22],[30,-40],[20,-3],[21,1],[29,-45],[-1,-31],[-6,-17],[-19,-17],[-3,-27],[-9,-15],[-5,-28],[3,-31],[12,-3],[20,17],[12,-14],[-3,-29],[-2,-48],[34,-70],[22,37],[8,38],[20,-20],[8,-80],[14,-45],[0,-56],[16,-43],[-1,-32],[5,-42],[29,-35],[22,-21],[25,-16],[11,25],[6,44],[17,34],[11,40],[8,32],[18,-3],[31,-4],[25,26],[13,-13],[22,1],[22,-14],[27,-8],[29,-57],[-2,-27],[16,-35],[21,-36],[6,-24],[-6,-24],[3,-24],[-12,-21],[-1,-38],[12,-35],[9,-43],[11,-18],[11,-22],[11,-39],[15,-20],[21,-24],[13,-18],[15,-20],[7,-30],[48,-69],[24,8],[17,-25],[16,-52],[7,-49],[10,-16],[20,36],[14,-19],[10,-55],[2,-44],[17,-63],[-9,-55],[-21,-57],[-19,-40],[-8,-57],[17,-18],[26,-6],[19,-4],[20,-10],[22,-50],[15,13],[24,12],[11,-24],[10,0],[26,-43],[12,-64],[1,-68],[11,-31],[-3,-50],[5,-40],[1,-40],[-3,-51],[-6,-41],[2,-9]],[[336807,95233],[-449,-1470],[64,-114]],[[336422,93649],[-1,-6],[7,-43],[-11,-39],[9,-35],[1,-4],[19,-32],[10,-15],[38,-46],[14,-51],[15,-53],[17,-17],[10,-8],[5,33],[12,-1],[23,-51],[30,-61],[19,-54],[8,-43],[11,-32],[7,-33],[3,-12],[9,-39],[1,-5],[29,-44],[15,-33],[8,19],[6,39],[6,19],[27,-6],[10,-38],[6,-21],[15,-16],[26,-35],[0,-4],[-4,-39],[-1,-3],[15,-24],[15,4],[15,-24],[17,-40],[16,-16],[7,-44],[8,-21],[-9,-38],[-3,-27],[-2,-37],[3,-9],[12,-34],[8,-35],[3,-33],[14,-19],[3,-22],[10,-18],[17,13],[12,-4],[14,-23],[29,-9],[17,23],[16,-7],[24,-20],[9,-27],[17,-23],[27,-41],[13,-23],[1,26],[11,18],[0,27],[-5,47],[0,50],[18,22],[10,19],[8,35],[13,40],[16,23],[18,-11],[6,10],[0,23]],[[337244,92591],[22,0]],[[337266,92591],[4,-6],[8,-15],[13,8],[7,6],[0,8]],[[337298,92592],[874,16]],[[338172,92608],[1,-6],[8,-25],[17,-28],[12,25],[23,11],[25,19],[13,0],[13,1],[6,5]],[[338290,92610],[981,18]],[[339271,92628],[13,-22],[14,-13],[21,-10],[17,-27],[12,-32],[19,-19],[20,13],[19,2],[37,-29],[37,-22],[16,22],[23,19],[30,-10],[14,-18],[14,0],[11,10],[21,5],[21,-2],[30,-9],[14,-35],[12,-41],[18,-22],[2,-2],[28,-10],[5,-46],[13,-30],[4,-38],[13,-38],[9,-30],[18,-23],[13,-29],[17,-45],[21,-33],[19,-10],[14,-37],[24,-18],[36,-27],[35,-34],[26,-31],[19,-2],[25,-34],[30,-27],[39,-9],[20,-26],[26,-28],[21,-12],[22,-9],[30,-16],[31,-14],[33,-27],[20,-30],[21,-12],[37,-17],[41,-32],[39,-24],[30,-25],[32,-29],[27,-34],[36,-15],[38,-47],[30,-15]],[[340648,91423],[133,-168]],[[340781,91255],[18,-44],[2,-49],[6,-49],[19,-45],[41,-39],[46,-24],[25,-38],[23,-22],[17,-8],[38,-56],[16,-12],[26,-5],[24,-29],[20,14],[20,-24],[15,-33],[27,-57],[18,-46],[17,-32],[21,-36],[-1,-26],[16,-17],[20,-9],[18,-23],[21,-74],[32,-14],[23,-34],[17,-25],[27,-12],[37,-7],[31,-30],[38,-35],[34,-66],[33,-56],[38,-30],[23,-9],[30,-46],[24,-41],[33,-52],[26,-43],[19,-21],[7,-41],[17,-35],[33,-32],[22,-7],[24,-38],[25,-22],[20,-41],[12,11],[6,6],[26,-5],[12,-52],[10,-49],[7,-37],[15,-13],[17,-12],[15,-26],[8,-42],[9,-35],[20,-25],[13,-11]],[[342077,89445],[161,-541]],[[342238,88904],[-14,0],[-11,-23],[0,-33],[-6,-31],[-5,-47],[16,-13],[17,-25],[21,9],[17,33],[1,8]],[[342274,88782],[19,-63]],[[342293,88719],[-15,-31],[-21,-55],[-9,-19],[-16,2],[-15,-22],[3,-39],[9,-26],[9,-12],[16,-52],[13,-12],[9,5],[15,-18],[14,3],[16,10],[13,3],[8,-21],[15,-30],[1,-23],[-3,-16],[8,-39],[6,-39],[16,-42],[16,-12],[15,10],[8,22],[1,12]],[[342425,88278],[281,-944]],[[342706,87334],[-4,-39],[20,-39],[12,-17]],[[342734,87239],[22,-73]],[[342756,87166],[-6,-22],[4,-33],[10,-22],[11,-33],[16,-11]],[[342791,87045],[1,-1]],[[342792,87044],[4,-40],[7,-30],[-12,-32],[-5,-89],[9,-38],[8,-42],[5,-49],[-2,-34],[4,-32],[46,-44],[22,18],[-2,23],[-5,11],[0,73],[9,10]],[[342880,86749],[175,-589]],[[343055,86160],[0,-2],[-2,-44],[0,-42],[-1,-32],[2,-35],[-4,-29],[-14,-28],[-4,-33],[-6,-50],[-2,-7],[-8,-23],[7,-60],[16,-66],[10,-64],[8,-31],[-3,-28],[14,-29],[17,-15],[1,3],[9,20],[9,48],[-1,50],[6,61],[5,37],[-1,43],[10,47],[2,31],[1,24],[-7,41]],[[343119,85947],[43,-147],[179,1140]],[[343341,86940],[11,-11],[21,9],[18,-10],[10,-14],[13,3]],[[343414,86917],[422,-920]],[[343836,85997],[0,-22],[4,-44],[15,-24],[6,-45],[9,-26],[-6,-33],[-7,-20],[5,-25],[12,-23],[21,18],[16,-46],[11,-23],[-3,-29],[13,-17],[17,40],[35,-26],[8,-30],[15,1]],[[344007,85623],[49,-105]],[[344056,85518],[0,-2],[1,-1]],[[344057,85515],[27,-58]],[[344084,85457],[-1,-9],[11,-14]],[[344094,85434],[7,-14]],[[344101,85420],[2,-36],[1,-55],[-8,-30],[7,-48],[11,-36],[18,-18],[17,-1],[19,-5],[23,-33],[31,-26],[16,-29],[7,2]],[[344245,85105],[153,-333]],[[344398,84772],[1,-6],[-1,-23],[18,-18],[8,-33],[11,-25],[21,-28],[9,-19],[4,-39],[7,-48],[15,-43],[17,31],[5,0]],[[344513,84521],[5,-9],[1078,-527]],[[345596,83985],[2,-10],[15,-27],[6,-31],[19,-29],[-4,-29],[18,-23],[28,-42],[6,-30],[14,-38],[22,-2],[11,10],[22,49],[2,-2]],[[345757,83781],[-24,-636]],[[345733,83145],[-13,-5],[-29,-10],[-23,1],[-22,12],[-20,36],[-32,48],[-19,47],[-11,18],[-17,-2],[-13,14],[-10,10],[-13,-5],[-21,15],[-21,27],[-12,7],[-10,-7],[-21,-12],[-27,-4],[-24,16],[-28,8],[-22,17],[-34,52],[-27,37],[-21,27],[-30,59],[-18,41],[-19,25],[-14,26],[-18,12],[-18,0],[-30,12],[-23,15],[-9,27],[-19,10],[-34,-1],[-17,19],[-18,9],[-18,-6],[-18,14],[-9,-7],[-30,-12],[-36,-6],[-19,33],[-30,6],[-15,25],[-13,-4],[-15,6],[-21,-22],[-26,7],[-12,20],[-18,-3],[-21,17],[-42,21],[-17,18],[-30,11],[-3,-1]],[[344583,83863],[-2137,1499],[55,-1010]],[[342501,84352],[-7,0],[-31,27],[-15,21],[-10,0],[-27,-2],[-2,-25],[0,-1],[20,-38],[13,-28],[1,-2],[4,-37],[1,-8],[24,-35],[-7,-14],[-10,-22],[-10,-6],[-21,0],[-11,-5],[-10,-11],[-5,-14],[0,-34],[-6,-11],[-12,-12],[-5,-18],[10,-20],[19,-26],[7,-33],[2,-22],[13,-20],[7,-7],[10,-24],[17,-20],[1,-2],[3,48],[11,8],[6,25],[16,21],[-1,14],[-12,17],[7,31],[25,2],[0,-1]],[[342516,84068],[1,-9],[15,-9]],[[342532,84050],[18,-28],[8,-16],[8,-20],[9,-12],[3,9],[8,31],[0,2]],[[342586,84016],[285,-177]],[[342871,83839],[-19,-13],[-22,13],[-11,-5],[-11,-29],[-17,-4],[-18,10],[-9,-20],[-7,-21],[5,-34],[-2,-50],[12,-31],[4,-30],[-11,-13],[-9,-51],[-18,4],[-14,-19],[13,-23],[10,-35],[-4,-42],[8,-26],[14,-26],[-3,-43],[-18,-28],[-15,-16],[-13,-9],[-8,-33],[-1,-32],[-9,-38],[-21,-61],[-8,-30],[4,-34],[0,-44],[-22,-20],[-16,-11],[-5,-30],[-3,-45],[9,-47],[8,-26],[4,-28],[1,-9],[-6,-44],[1,-29],[-2,-50],[-6,-22],[-24,-14],[-9,-22],[-6,-39],[0,-4],[1,-33],[-4,-39],[8,-19]],[[342602,82495],[-64,-219]],[[342538,82276],[-5,-5],[-21,-2],[-32,-29],[-18,-48],[-15,-17],[-13,-25],[-6,-5],[-19,-16],[-2,-10],[-6,-44],[0,-3],[11,-17],[6,4],[5,4],[2,3],[8,-3],[14,-5],[28,7],[2,2]],[[342477,82067],[-92,-316]],[[342385,81751],[-12,6],[-12,-3],[-12,-4],[-10,-39],[-9,-35],[14,-23],[5,-28]],[[342349,81625],[-113,-388]],[[342236,81237],[-22,-12],[-10,-32],[14,-17]],[[342218,81176],[-32,-111],[68,99]],[[342254,81164],[15,-22],[4,-30],[11,-42],[5,-26],[-3,-35],[-9,-38],[-6,-31],[12,-32],[21,-37],[19,-28],[29,12],[28,12],[5,30],[7,45],[-2,25],[-7,27],[-16,25],[3,26],[11,42],[10,33],[10,21],[-8,34],[4,17],[15,6],[13,19],[7,25],[2,43],[8,31],[5,43],[2,43],[-3,38]],[[342446,81440],[376,542]],[[342822,81982],[7,-23],[19,14],[21,34],[6,37],[-2,12]],[[342873,82056],[562,809],[607,-101]],[[344042,82764],[6,-20],[13,-7],[14,2],[3,19]],[[344078,82758],[869,-145]],[[344947,82613],[8,-11],[11,-17],[14,-33],[-2,-46],[-18,-7],[-8,-22],[-9,-20],[-9,-10],[-20,-11],[-5,-31],[-9,-23],[-21,-15],[-5,-34],[-9,-16],[-13,-10],[-20,-12],[-17,16],[-10,-20],[-13,-5],[-15,22],[-13,-4],[-10,-34],[-2,-52],[-3,-46],[-10,-26],[-17,-7],[-13,15],[-18,-14],[-97,-85],[-15,-28],[-20,-17],[-14,-31],[-15,-17],[-19,-10],[-7,-31],[-20,-12],[-22,-38],[-24,-21],[-23,-13],[-17,12],[-30,13],[-12,2],[-18,-29],[-22,-26],[-25,18],[-41,14],[-14,21],[-10,2],[-14,-31],[-10,-33],[-1,-36],[-8,-25],[-2,-71],[-22,-4],[-21,12],[-7,17],[-12,-1],[-15,24],[-22,2],[-8,4],[-10,3],[-10,-16],[-1,-19],[0,-28],[-4,-22],[-14,-18],[-10,-28],[18,-28],[51,-106],[16,0],[17,24],[20,-22],[26,12],[19,-18],[19,0],[16,-25],[9,-19],[18,1],[7,14],[28,-6],[20,-14],[4,-29],[-10,-18],[0,-34],[5,-33],[17,-48],[9,-12],[5,-15]],[[344349,81218],[-435,-772],[568,600]],[[344482,81046],[7,-6],[24,-35],[32,21],[37,33],[19,-2],[18,-20],[10,-26],[14,5],[-4,47],[-17,88],[-4,38]],[[344618,81189],[204,216]],[[344822,81405],[1,-1],[21,4],[24,20],[9,35]],[[344877,81463],[404,426]],[[345281,81889],[4,-40],[19,-36],[27,-21],[21,-14],[7,-22],[16,-7],[10,-15],[1,-17],[-9,-11],[0,-26],[10,-22],[11,-29],[19,-12],[16,2],[24,22],[14,-4],[16,3],[13,10],[14,8],[23,-16],[17,-42],[14,-40],[1,-36],[-1,-29],[3,-19],[5,-28],[10,-39],[20,-16],[15,11],[13,15],[11,-18],[17,-8],[18,-35],[-13,-34],[3,-18],[15,-58],[21,-1],[11,0],[19,33],[0,30],[7,4],[25,-27],[9,-5],[9,6],[18,-41],[16,-27],[16,-7],[13,10],[1,35],[10,32],[4,33],[15,26],[21,15],[18,-10],[23,-20],[14,-21],[26,-1],[8,49],[11,38],[10,26]],[[346010,81425],[106,-72]],[[346116,81353],[2,-7],[-14,-7],[-10,-21],[-4,-15],[10,-21],[3,-24],[-9,-15],[-8,-16],[1,-22],[-2,-32],[-14,-48],[16,-30],[21,1],[26,-17],[6,-34],[11,-42],[19,8],[47,-11],[26,-15],[33,-21],[17,-31],[4,-33],[20,-23],[24,-41],[20,-67],[-9,-32],[-25,-18],[-3,-38],[18,-21],[19,-16],[24,-15],[10,-62],[-9,-43],[0,-28],[-7,-16],[-3,-20],[4,-32],[-2,-36],[24,10],[30,13],[6,-29],[2,-47],[10,-26],[4,-29],[5,-39],[17,-11],[26,33],[24,-70],[27,12],[1,45],[9,44],[29,-4],[16,-33],[3,-59],[-13,-80],[-7,-38],[49,-39],[24,5],[31,-44],[16,-31],[30,-35],[-8,-39],[26,-58],[24,-6],[19,-22],[11,-48],[25,5],[37,13],[16,6]],[[346891,79791],[47,-101]],[[346938,79690],[0,-25],[-7,-15],[19,-40],[-11,-50],[-5,-31],[13,-26],[15,-32],[16,9],[24,19],[4,-36],[-7,-41],[-18,-97],[-3,-8]],[[346978,79317],[-940,-747],[58,-305]],[[346096,78265],[0,-3],[2,-7]],[[346098,78255],[60,-313]],[[346158,77942],[-22,-40],[-19,26],[-13,19],[-54,-25],[2,-56],[2,-47],[13,-34],[2,-26],[-1,-60],[-7,-25],[4,-24],[-10,-54],[-20,-35],[-10,-52],[18,-47],[-3,-37],[13,-38],[19,-13],[15,-16],[18,16],[32,71],[3,46],[11,17],[27,11],[21,9],[23,20],[9,10]],[[346231,77558],[64,-334],[812,653]],[[347107,77877],[29,-31],[16,38],[39,21],[15,-34],[18,-12],[11,54],[-3,32],[-12,24]],[[347220,77969],[96,77],[235,1892],[252,-431]],[[347803,79507],[-13,-22],[-22,-15],[-13,-31],[1,-31],[24,0],[21,-10],[21,16],[20,-54],[1,-24],[-12,-9],[-8,-32],[-1,-46],[8,-37],[17,24],[22,15],[11,-21],[23,-42],[12,-31],[16,-36],[18,-47],[-11,-36],[5,-45],[0,-40],[-4,-24],[3,-32],[26,4],[25,5],[17,-27],[12,-41],[10,-63],[-17,-30],[-7,-24],[-3,-25],[-11,-7],[-22,-35],[20,-38],[23,-61],[22,-29],[17,-35],[17,-41],[19,-10],[20,-37],[10,-28]],[[348120,78375],[54,-480]],[[348174,77895],[-6,-19],[0,-30],[6,-77],[-6,-36],[-6,-23],[-17,-63],[10,-74],[27,-29],[-1,-26],[-21,4],[-66,-4],[-18,-8],[-21,-26],[3,-33],[37,-34],[30,-32],[23,-109],[13,-18],[-10,-38],[-14,16],[-14,33],[-45,43],[-34,-8],[-12,-10],[-12,39],[-18,-11],[-17,-16],[-26,-35],[-10,-32],[6,-49],[20,-55],[-31,-26],[-21,-43],[26,-51],[17,-42],[17,6],[8,15],[25,41],[39,-15],[14,4],[7,-59],[3,-109],[-23,-69],[1,-52],[-29,-33],[-16,-63],[-17,-2],[-9,-17],[-12,-34],[-30,-30],[-21,-10],[-14,7],[-29,-32],[-15,-35],[1,-35],[-2,-42],[19,-20],[15,8],[23,9],[19,56],[11,-3],[14,-21],[25,-7],[22,-6],[22,26],[13,24],[31,16],[30,35],[10,24],[15,28],[14,18],[-8,39],[20,27],[21,16],[45,8],[46,-3],[34,-37],[18,-53]],[[348323,76593],[25,-217]],[[348348,76376],[-8,-3],[-12,-24],[5,-32],[-5,-41],[-20,-21],[-24,-18],[-9,-32],[-2,-5]],[[348273,76200],[-603,-313],[178,-553]],[[347848,75334],[8,-45],[7,-43],[13,-2],[4,-9]],[[347880,75235],[17,-51]],[[347897,75184],[-5,-9],[-36,-7],[-13,-20],[-30,-23],[-3,-27],[14,-37],[17,-19],[45,13],[11,-32],[-19,-26],[-30,-9],[-19,-16],[-20,-34],[-13,-29],[3,-17],[2,-100],[16,-24],[30,24],[25,20],[50,36],[9,-91],[-3,-49],[6,-44],[17,-49],[23,-22],[23,14],[16,-37],[6,-39],[-1,-44],[-26,-24],[-5,23],[1,23],[-12,32],[-14,0],[-15,-23],[-2,-18],[-15,-24],[-12,-25],[-6,-29],[-4,-34],[-20,-14],[-1,-30],[-16,-40],[-19,-13],[-16,-27],[-16,-26],[-17,-12],[-12,-21],[-14,-19],[2,-20],[-19,-16],[-14,-22],[-20,-26],[5,-25],[-3,-20],[3,-26],[-14,-14],[-13,-3],[-5,-23],[7,-26],[14,-8],[3,-28],[-8,-24],[-17,-11],[-13,-3],[-4,-14],[12,-22],[-5,-20],[-7,-21],[-11,-40],[-15,-17],[-25,-6],[-31,-55],[-35,-23],[-25,-39],[-10,31],[-5,21],[-15,9],[-32,-19],[-8,-38],[11,-33],[4,-33],[-10,-22],[-21,-38],[-11,-14],[-24,-16],[-8,-51],[-13,-58],[0,-28],[-20,-21],[-27,-22],[-22,-23],[1,-39],[-31,-22],[-45,-8],[-10,-4],[-82,-108],[27,-34],[8,-30],[-7,-54],[42,-108],[34,-18],[21,1],[15,14],[39,-8],[26,18],[15,33],[15,-8],[24,23],[27,33],[17,2],[8,45],[14,27],[-6,76],[10,51],[28,-8],[33,-14],[15,42],[23,6],[47,30],[17,-9],[32,3],[38,-47],[0,-30],[-10,-76],[-9,-30],[-4,-33],[8,-43],[14,-19],[35,29],[29,-25],[5,-24],[-21,-56],[10,-70],[83,51],[26,17],[26,3],[4,33],[0,26],[-25,27],[-20,-6],[-6,19],[-3,53],[-6,24],[-18,18],[-9,28],[-7,24],[-7,74],[14,33],[47,35],[13,30],[-2,40],[-15,8],[-16,28],[7,41],[16,18],[44,80],[19,51],[-12,34],[-4,31],[8,27],[0,41]],[[347937,73675],[76,84]],[[348013,73759],[3,-22],[3,-69],[41,35],[17,42],[8,83],[15,26],[24,25],[34,21],[1,21]],[[348159,73921],[611,677]],[[348770,74598],[10,-18],[19,-11],[-3,-19],[-15,-21],[4,-37],[-8,-15],[5,-47],[14,-63],[19,-8],[14,14],[11,34],[20,-7],[30,-28]],[[348890,74372],[-8,-121]],[[348882,74251],[-22,15],[-30,34],[-23,-24],[17,-51],[21,-35],[17,-8],[6,-40],[7,-14]],[[348875,74128],[-53,-836],[578,-1424],[-340,-286]],[[349060,71582],[-2,11],[-13,35],[9,55],[3,35],[-25,58],[-17,-53],[-18,-23],[-13,-35],[-23,11],[-16,22],[-13,-3],[-14,-24],[-4,-22],[-15,-10],[-22,-45],[-25,-42],[6,-32],[32,-51],[8,-23]],[[348898,71446],[-38,-32],[137,-212]],[[348997,71202],[6,-46],[21,-94],[11,-21],[50,2],[1,20]],[[349086,71063],[860,-1332]],[[349946,69731],[2,-12],[12,-20],[4,-37],[-20,-48],[-17,-52],[3,-9]],[[349930,69553],[-178,-212]],[[349752,69341],[-13,-14],[1,-1]],[[349740,69326],[-41,-48]],[[349699,69278],[-9,9],[-27,-3],[-13,5],[-20,-23],[2,-58],[8,-2]],[[349640,69206],[56,-282]],[[349696,68924],[-1,0],[-18,16],[-12,-6],[-11,-28],[8,-30],[1,-45],[17,-35],[23,-42],[8,-22],[-8,-45],[17,-46],[16,-16],[17,-16],[7,-1]],[[349760,68608],[133,-657]],[[349893,67951],[-18,-2],[-18,-30],[-4,-44],[0,-53],[18,-30],[13,-13],[-3,-22],[-17,-9],[-7,-43],[1,-49],[21,-51],[24,-27],[13,-72],[7,-63],[0,-35],[7,-36],[16,-37],[10,-39],[5,-37],[-1,-8]],[[349960,67251],[-39,-13]],[[349921,67238],[-7,9],[-10,13],[-21,0],[-13,35],[-12,38],[-12,-11],[-17,-45],[-20,0],[-25,-17],[-37,-24],[-34,6],[-34,24],[-26,18],[-23,14],[-17,-17],[-21,-24],[-27,-35],[-24,-14],[-31,-46],[-23,11],[-22,6],[-33,-10],[-26,-19],[-14,-10],[-18,-84]],[[349374,67056],[-510,-170]],[[348864,66886],[-10,26],[-39,9],[-45,-41],[-10,-29]],[[348760,66851],[-113,-38]],[[348647,66813],[-43,-1],[-15,58],[-20,88],[-18,82],[-6,63],[-36,92],[-48,-6],[-43,-9],[-3,-52],[13,-59],[-37,-50],[-67,-141],[-63,39],[-46,125],[-49,-2],[-102,-50],[-19,-68],[-6,-197],[3,-62],[-17,-57]],[[348025,66606],[-103,-35],[195,2046],[-997,-472],[452,1248],[-1209,1328],[-314,2053],[-141,-2643]],[[345908,70131],[-20,-16],[-7,-64],[15,-80],[4,-9]],[[345900,69962],[-3,-50],[-238,1870],[-330,-1476]],[[345329,70306],[-616,501],[264,1314],[-370,291],[773,620],[-737,952]],[[344643,73984],[2,6],[-12,53],[-16,49],[18,51],[27,53],[-29,68],[-36,61],[-21,-23],[-28,-79],[-46,-41],[-1,-13]],[[344501,74169],[-126,163],[-4,-39]],[[344371,74293],[-5,85],[-12,36],[-29,38],[-43,-38],[-44,-50],[-15,-72],[-13,-87],[-15,-85],[2,-91],[-1,-39]],[[344196,73990],[-20,1282],[-914,1513],[326,-971]],[[343588,75814],[-43,53],[-3,67],[-58,57],[-31,58],[-32,33],[-15,61],[-74,41],[-36,94],[-43,76],[-23,16],[-143,14],[-5,-23],[-3,-104],[45,-59],[5,-79],[25,-55],[52,-61],[77,-92],[48,-87],[25,-94],[50,-92],[32,-76],[37,-67],[56,-26],[43,-50],[22,-60],[24,-64],[14,-74],[26,-51],[12,-95],[-3,-42],[8,-110],[16,-146],[2,-61]],[[343695,74716],[-43,-135]],[[343652,74581],[-35,-14],[-20,-71],[5,-64],[1,-10]],[[343603,74422],[-62,-198],[-6,4]],[[343535,74228],[-35,68],[-51,-4],[-18,-9]],[[343431,74283],[-849,450],[-525,1767],[-932,-1859]],[[341125,74641],[-5,93],[-15,63],[-54,-5],[-21,-81],[-4,-65],[-8,-60],[-32,-62],[-2,-3]],[[340984,74521],[355,1837],[-2257,-1240],[-190,418]],[[338892,75536],[5,15],[1,53],[-15,54],[-39,13],[-17,10]],[[338827,75681],[-231,509],[67,302]],[[338663,76492],[53,52],[30,34],[-1,39],[-8,34],[-35,0],[-4,-2]],[[338698,76649],[167,754]],